name,name_en,name_ar,tourism,amenity,shop,man_made,rooms,beds,addr_city,latitude,longitude
The Petra Park Map,,,information,,,,,,,30.3244873,35.4679126
,,,information,,,,,,,32.6839583,35.6653072
1 - Madaba’s Roman Road,,,information,,,,,,,31.7159171,35.7954839
"The Bath ""Hammam""",,,information,,,,,,,31.9554501,35.9344808
,,,information,,,,,,,32.3253913,35.7281422
,,,information,,,,,,,32.3251408,35.7276182
,,,information,,,,,,,32.3252775,35.7278693
,Boat crossing Tala Bay - Taba Heights,,information,,,,,,,29.4093111,34.9797474
Umm er Rasas Visitor Visitor Center,,,information,,,,,,,31.5020027,35.9173919
Djinn Blocks (50 BC – 50 AD),,,information,,,,,,,30.3221304,35.4641703
,,,information,,,,,,,30.3290106,35.4447739
The West Church,,,information,,,,,,,32.3290772,36.3682812
House XVIII's Façade and Reservoir,,,information,,,,,,,32.3254684,36.3709246
House XVII's Courtyard,,,information,,,,,,,32.3255301,36.3705886
House 103 and the Double Church,,,information,,,,,,,32.3257916,36.369958
Entering the Neighborhood,,,information,,,,,,,32.3257046,36.3692623
The Numerianos Church,,,information,,,,,,,32.3256344,36.3685964
House XVII,,,information,,,,,,,32.3256794,36.3705789
The Southwest Church,,,information,,,,,,,32.3248014,36.3660859
House 35,,,information,,,,,,,32.3251771,36.3660148
Reservoirs and Water Channels,,,information,,,,,,,32.3268929,36.3703365
Agriculture,,,information,,,,,,,32.3270113,36.3701011
Fauna,,,information,,,,,,,32.3277071,36.3698745
The Gate of Commodus,,,information,,,,,,,32.3287916,36.3684683
Welcome to Ancient Umm e-Jimal,,,information,,,,,,,32.3292324,36.3685267
Basalt Construction Techniques,,,information,,,,,,,32.3258432,36.3707257
Umm al-Jimal City,,,information,,,,,,,32.3246666,36.3683443
Welcome to Umm al-Jimal Walking Trail,,,information,,,,,,,32.324721,36.368302
Outside the House XVII-XVIII Complex,,,information,,,,,,,32.3253692,36.3705732
Religious Life Before Byzantine Umm el-Jimal,,,information,,,,,,,32.325308,36.3684502
House 119 - The Interpretive and Hospitality Center,,,information,,,,,,,32.3248162,36.3684348
The Barracks,,,information,,,,,,,32.3249703,36.3680519
Beyond the Fence,,,information,,,,,,,32.3243867,36.3672144
"Abandonment, Reoccupation and Maintaining a Living Ruin",,,information,,,,,,,32.324619,36.3669978
Byzantine House I and Masa'eid Tent Sites,,,information,,,,,,,32.3247924,36.3665821
House III,,,information,,,,,,,32.3254774,36.3660684
House 49,,,information,,,,,,,32.3258599,36.3661797
The Destruction of Roman Umm el-Jimal: King Gadhima and Queen Zenobia,,,information,,,,,,,32.326133,36.3666652
Umm el-Jimal's Northern Section,,,information,,,,,,,32.3282437,36.3693434
Quarry Reservoir,,,information,,,,,,,32.3263376,36.3701987
House XIII,,,information,,,,,,,32.3269229,36.3697913
"Houses IV, V, VI and VII",,,information,,,,,,,32.3262531,36.3667531
Flora,,,information,,,,,,,32.3264843,36.3673894
The Praetorium,,,information,,,,,,,32.326975,36.3680211
The Cathedral and Community Worship,,,information,,,,,,,32.3276368,36.3682263
When Ancient Meets Modern,,,information,,,,,,,32.3280102,36.3685783
,,,information,,,,,,,32.4270103,36.312317
Wadi adh Dharab Trail,,,information,,,,,,,32.2790815,35.8927866
,,,information,,,,,,,30.3238976,35.4436882
Al-Khazna (The Treasury),,,information,,,,,,,30.3221166,35.4517805
,,,information,,,,,,,31.9845183,35.8275341
The South Theatre,,,information,,,,,,,32.276995,35.8895621
جرش,Jerash,جرش,information,,,,,,,32.2772926,35.8902501
Madaba Tourist Information,,,information,,,,,,,31.7164078,35.7969888
,,,information,,,,,,,32.2764744,35.8908701
,,,information,,,,,,,31.7671004,35.7272842
The mosaics of the Diakonikon,,,information,,,,,,,31.7681812,35.7254646
Memorial of Moses,,,information,,,,,,,31.7681018,35.7254212
Siyagha Monastery,,,information,,,,,,,31.7677562,35.7255804
,,,information,,,,,,,32.4267182,36.3139256
,,,information,,,,,,,32.426536,36.3124839
,,,information,,,,,,,32.4271461,36.3131055
Jabal Amman Residents Association,,,information,,,,,,,31.9492688,35.9275109
Tourist Information,,,information,,,,,,,32.0386941,35.7261936
,,,information,,,,,,,32.3254559,35.7277939
The Church of the Propylea,,,information,,,,,,,32.2811332,35.892804
Propylaeum of the Sanctuary of Artemis,,,information,,,,,,,32.2811542,35.8926183
The Catedral,,,information,,,,,,,32.2803736,35.8921854
The Nymphaeum,,,information,,,,,,,32.2804713,35.8922449
The Fountain Court,,,information,,,,,,,32.2806928,35.8912854
church of St. Theodore,,,information,,,,,,,32.2809603,35.8905556
The church of Saints Peter and Paul,,,information,,,,,,,32.2800782,35.8895982
,RSCN Dibeen Center,,information,,,,,,,32.241869,35.8301113
,Visitor Center,,information,,,,,,,32.2764912,35.8910899
The West Souk and Military Barracks,,,information,,,,,,,32.2766415,35.8909366
The North Tetrapylon,,,information,,,,,,,32.2819365,35.8931601
The Jordan Archaeological Museum,,,information,,,,,,,31.9539125,35.9341076
الجسور العشره,,,information,,,,,,,31.9392604,35.9560108
Amman: a view towards the west,,,information,,,,,,,31.9536683,35.9340222
Ministry of Tourism,,,information,,,,,,,31.7015971,35.9511172
,Tourist Information Office,,information,,,,,,,31.9516149,35.9375805
Agora and Civic Basilica,,,information,,,,,,,32.2827325,35.8928905
"The Open Cistern ""Birka""",,,information,,,,,,,31.9554232,35.9346261
Amman Citadel,Amman Citadel,,information,,,,,,,31.9544825,35.936707
Temperature,,,information,,,,,,,29.5335271,34.995178
,,,information,,,,,,,32.1814397,35.621809
um al-Jimal Archaeological Site Visitor Center,,,information,,,,,,,32.3239718,36.3684906
,,,information,,,,,,Aqaba,29.4097567,34.9801554
,,,information,,,,,,,29.4314584,34.9752325
,Aqaba Bird Observatory,,information,,,,,,,29.5754218,34.985699
,,,information,,,,,,Aqaba,29.4101459,34.9797543
"Closed road, no way to border",,,information,,,,,,,29.5679932,34.99249
,,,information,,,,,,,30.3381859,35.4296392
,,,information,,,,,,,30.3378225,35.4306168
,,,information,,,,,,,30.3234197,35.4444172
,,,information,,,,,,,30.3233197,35.4498087
,,,information,,,,,,,30.3204233,35.4455281
,,,information,,,,,,,30.3291875,35.442961
,,,information,,,,,,,30.329854,35.4405013
,,,information,,,,,,,30.329354,35.4398382
,,,information,,,,,,,30.3291328,35.4405867
,,,information,,,,,,,30.3304254,35.4402143
,,,information,,,,,,,30.3301489,35.4402326
البرج وادي عربه,,,information,,,,,,,30.5032607,35.3381096
,,,information,,,,,,,29.5205556,35.4233962
The South Tetraphylon,,,information,,,,,,,32.2792227,35.8915789
The North Theatre,,,information,,,,,,,32.2822563,35.8925472
Jordan echo tours,Jordan echo tours,Jordan echo tours,information,,,,,,,29.5306333,35.0018309
Dana nature reserve visitor's center,Dana Visitor's Center,,information,,,,,,,30.6974663,35.5798729
250kW Photovoltaic Power System,,,information,,,,,,,30.3242754,35.4675351
The Petra Park Map,,,information,,,,,,,30.3244588,35.4676722
,,,information,,,,,,,29.5293424,35.0028466
,,,information,,,,,,,30.3198716,35.4475041
,,,information,,,,,,,30.3193144,35.4473566
Welcome To Petra,,,information,,,,,,,30.3250586,35.4685845
The Petra Park Map,,,information,,,,,,,30.3244668,35.4677403
,,,information,,,,,,,30.3237383,35.4675494
Bab el-Siq,,,information,,,,,,,30.3217352,35.4633455
Petra Archeological Park,,,information,,,,,,,30.3218257,35.4612315
,,,information,,,,,,,30.3300558,35.4424176
,,,information,,,,,,,30.3289621,35.4451735
,,,information,,,,,,,30.3301426,35.4415669
,,,information,,,,,,,30.3301872,35.4422003
,,,information,,,,,,,30.3302475,35.4425395
,,,information,,,,,,,30.3303639,35.4427853
Wadi Mujib Tourist Information Center,,,information,,,,,,,31.4676824,35.5715571
,,,information,,,,,,,30.327845,35.4488149
timetable of bus to Jerash,,,information,,,,,,,31.9943499,35.9195977
Can't walk to the border from this road,,,information,,,,,,,29.5657285,34.9993827
The Petra Park Map,,,information,,,,,,,30.3244951,35.4679776
,,,information,,,,,,,31.7494127,35.5882687
The Oval Placa,,,information,,,,,,,32.2771007,35.8909191
The Cardo,,,information,,,,,,,32.2778717,35.8909037
The Sanctuary of Artemis,,,information,,,,,,,32.28172,35.8917788
The South Decumanus,,,information,,,,,,,32.2793939,35.89153
The North Gate and the North end of the Cardo,,,information,,,,,,,32.282701,35.8935789
Amman: a view towards the north,,,information,,,,,,,31.9565926,35.9336507
,,,information,,,,,,,31.8374428,35.5459393
RSCN Ajloun Reserve Information Office and reception,,,information,,,,,,,32.3802175,35.7635603
Visitor Center,,,information,,,,,,,31.8462666,35.5773872
RSCN Shaumari Wildlife Reserve,,,information,,,,,,,31.7521853,36.7561109
Dana Visitor Center,,,information,,,,,,,30.6743373,35.6082666
,,,information,,,,,,,31.9647141,35.9054948
The Hippodrome,,,information,,,,,,,32.2729753,35.8910998
High Place Petra View,,,information,,,,,,,30.3206352,35.4525525
School,,,information,,,,,,,29.575576,35.4193874
Wadi Rum Visitor Center,,,information,,,,,,,29.639233,35.434445
The Byzantine church,The Byzantine church,,information,,,,,,,31.954473,35.935303
The South Gate and the City Wall,,,information,,,,,,,32.2763405,35.891017
The Temple of Artemis,,,information,,,,,,,32.2816086,35.891121
The Umayyad Complex,The Umayyad Complex,,information,,,,,,,31.9553491,35.9344221
Site Rules,,,information,,,,,,,31.767666,35.7260587
The Brazen Serpent Monument,,,information,,,,,,,31.7682697,35.7253671
,,,information,,,,,,,30.3309626,35.4394923
,,,information,,,,,,,30.3345129,35.4390742
مكتبة ومكتب التذاكر مار جرجس,,مكتبة ومكتب التذاكر مار جرجس,information,,,,,,,31.7175534,35.7940136
,Tourist Information,,information,,,,,,,29.5287138,35.0021954
