name,name_en,name_ar,tourism,amenity,shop,man_made,rooms,beds,addr_city,latitude,longitude
Gallery Hodroj,,,gallery,,,,,,,31.9564193,35.9242918
Nabad,,,gallery,,,,,,,31.9513923,35.9299919
The Boulevard's Corner,,,gallery,,,,,,,31.9649351,35.9036474
وطن,Watan Studio,,gallery,,,,,,,31.9468553,35.929953
Museum Jerusalem,,,gallery,,,,,,,31.9579821,35.9154519
دارة الفنون (مؤسّسة خالد الشومان),Darat al Funun (Shoman Foundation),,gallery,,,,,,عمّان,31.9541995,35.9304639
