name,name_en,name_ar,tourism,amenity,shop,man_made,rooms,beds,addr_city,latitude,longitude
سوق الخضرا,Souq El-Khodra,سوق الخضرا,attraction,marketplace,,,,,,31.9500152,35.9355474
My Grandfather's House,My Grandfather's House,بيت جدي,hotel,,,,3,,ضانا,30.6766164,35.6094032
,Rashidiya,,camp_site,,,,,,,29.7327489,35.2820019
Plane wreck,,,attraction,,,,,,,29.4180629,34.97162
,,,viewpoint,,,,,,,30.1784829,35.4276386
,,,viewpoint,,,,,,,30.1771935,35.4273962
Pella Ruins & Resthouse,,,attraction,,,,,,,32.4503495,35.617552
Little Petra Bedouin Camp,,,hotel,,,,,,,30.370803,35.4584968
Mussa Spring hotel,,,hotel,,,,,,,30.3250567,35.4974295
,,,camp_site,,,,,,,29.4247567,35.3902599
,,,camp_site,,,,,,,29.4790917,35.3958204
,,,camp_site,,,,,,,29.483235,35.3868094
Aitch Boutique Hotel,,,hotel,,,,,,,31.7229332,35.794309
The Petra Park Map,,,information,,,,,,,30.3244873,35.4679126
,Feynan Wild Camp,,camp_site,,,,,,,30.6152821,35.4782157
جسر الملك حسين,Allenby Bridge,جسر الملك حسين,attraction,,,,,,,31.8738717,35.5409112
Petra Boutique Hotel,,,hotel,,,,,,,30.3252687,35.471301
,,,hotel,,,,,,,31.9916381,35.8921432
,,,viewpoint,,,,,,,31.9535756,35.9386773
,,,information,,,,,,,32.6839583,35.6653072
value place,,,hostel,,,,8,,وادي موسى,30.3282073,35.4704955
Street of Facades,,,attraction,,,,,,,30.323142,35.4501264
Lion Monument,Lion Monument,,attraction,,,,,,,30.320191,35.44634
The Two Obelisks,The Two Obelisks,,attraction,,,,,,,30.3203403,35.4480045
Dorotheos' House,,,attraction,,,,,,,30.3326789,35.4542698
Al Habis,,,viewpoint,,,,,,,30.3290508,35.4388177
1 - Madaba’s Roman Road,,,information,,,,,,,31.7159171,35.7954839
,,,viewpoint,,,,,,,31.4457393,35.8199073
,,,viewpoint,,,,,,,31.4516769,35.5633547
Boys of Ramadan Viewpoint,,,viewpoint,,,,,,,30.3288332,35.4505834
علية الباشا,,,museum,,,,,,,32.3125354,35.8394711
خارطة مادبا,Madaba Map,خارطة مادبا,artwork,,,,,,,31.7176771,35.7941619
زوجة لوط,Lot's Wife,زوجة لوط,attraction,,,,,,,31.431061,35.5634221
"The Bath ""Hammam""",,,information,,,,,,,31.9554501,35.9344808
,,,artwork,,,,,,,31.1122407,35.7131289
,,,artwork,,,,,,,31.7680772,35.7256575
,,,camp_site,,,,,,,29.6574357,35.4649473
Nobel Hotel,Nobel Hotel,,guest_house,,,,,,,31.9561877,35.9312012
فندق سدني عمان,Sydney Hotel Amman,فندق سدني عمان,hostel,,,,,,,31.951555,35.928257
,,,information,,,,,,,32.3253913,35.7281422
,,,information,,,,,,,32.3251408,35.7276182
,,,information,,,,,,,32.3252775,35.7278693
المدرج الروماني عمان m&h,,,museum,,,,,,,31.9522558,35.939077
,,,viewpoint,,,,,,,30.3731796,35.4453144
Airport Villa Amman,,,apartment,,,,,,,31.7171718,35.9552901
,,,viewpoint,,,,,,,32.3799392,35.7631999
Aljun Forest Reserve Cabins,,,hotel,,,,,,,32.3802512,35.7635842
,,,attraction,,,,,,,31.7181886,35.6015458
مدرسة باب الواد الاساسية,Bab El Wad Elementary School,,artwork,,,,,,,31.9737406,35.9500678
Wadi al-Malaqa Campsite,,,camp_site,,,,,,,30.589533,35.4596408
,Imagination Luxury Camp,,camp_site,,,,,,,29.6135662,35.4936517
,Boat crossing Tala Bay - Taba Heights,,information,,,,,,,29.4093111,34.9797474
,,,viewpoint,,,,,,,30.3281451,35.4443559
غدير الطير,Ghadeer altair,,camp_site,,,,,,,32.182481,36.371411
Al Nasir's Residence,,,apartment,,,,,,,31.1408139,35.7212318
,,,viewpoint,,,,,,,30.9970862,35.7169148
,,,viewpoint,,,,,,,30.9606661,35.7740258
Petra Harmony,Petra Harmony B&B,,guest_house,,,,,,,30.3145371,35.4756979
Roman's Kingdom,,,apartment,,,,,,,31.7130936,35.7899936
,,,viewpoint,,,,,,,31.6246851,35.6134379
,,,viewpoint,,,,,,,31.6226924,35.6100771
,,,viewpoint,,,,,,,31.6047925,35.5732745
Mosaic City Hotel,,,hotel,,,,,,,31.7210959,35.7926029
Umm er Rasas Visitor Visitor Center,,,information,,,,,,,31.5020027,35.9173919
,,,viewpoint,,,,,,,31.5014436,35.9190716
,,,viewpoint,,,,,,,31.5001086,35.9213622
Wadi Rum Desert Secret,,,hotel,,,,5,,Aqaba,29.602016,35.487128
Djinn Blocks (50 BC – 50 AD),,,information,,,,,,,30.3221304,35.4641703
Wadi Rum Village Lodge,,,hostel,,,,5,,Wadi Rum Village,29.5717071,35.4228105
قصر اليهود,Qasr al Yahud,قصر اليهود,attraction,place_of_worship,,,,,,31.8370299,35.5460521
,Thieban Rock,,attraction,,,,,,,31.4749203,35.8073005
Wadi Rum Village Hostel,,,hostel,,,,3,,Wadi Rum Village,29.5719081,35.4228158
كورال بي,Coral Bay,كورال بي,hotel,,,,,,,29.3993423,34.9674652
,Anoun‘s Spot,,attraction,,,,,,,31.3981837,35.5474661
,Salt Beach,,attraction,,,,,,,31.4024807,35.5498967
,,,information,,,,,,,30.3290106,35.4447739
Lot's Cave,,,attraction,,,,,,,31.0468038,35.5028046
Camp Makhraba,,,camp_site,,,,,,,32.56932,35.6589103
بيت ظافر عمان,,,attraction,,,,,,,31.9633278,35.7556229
مزرعة ابو رافع,,,attraction,,,,,,,31.7026428,37.2553212
موفنبيك,Movenpick,موفنبيك,hotel,,,,,,العقبة,29.5324098,34.9995105
Room17 Youth Hostel,,,hostel,,,,12,,aqaba,29.5539975,34.9995254
Cedar Hotel,,,hotel,,,,,,,29.5305594,35.0058197
Oryx Hotel,,,hotel,,,,,,Aqaba,29.5401096,34.9993798
Hakaia home,,,hostel,,,,,,,29.537897,35.0006848
اراضي الشيخ منصور الحراحشة,,,guest_house,,,,,,,30.8339489,36.4517335
,,,viewpoint,,,,,,,31.8798885,36.8280788
,,,picnic_site,,,,,,,29.6534607,35.7368687
محمية الأزرق,Azraq Wetland Reserve,محمية الأزرق,attraction,,,,,,,31.8337705,36.8212902
نزل ال شرت الحقرا,,,guest_house,,,,20,,عجلون,32.3935824,35.7307879
Jabal Rum Camp,,,camp_site,,,,,,,29.6853607,35.4485015
Lavender Amman Hotel,,,hotel,,,,10,,Amman,31.7478749,35.939734
,,,artwork,,,,,,,29.5042615,35.9521049
The West Church,,,information,,,,,,,32.3290772,36.3682812
Sandra hotel,,,hotel,,,,,,,31.9469048,35.9337011
,,,attraction,,,,,,,29.4011282,34.9690868
House XVIII's Façade and Reservoir,,,information,,,,,,,32.3254684,36.3709246
House XVII's Courtyard,,,information,,,,,,,32.3255301,36.3705886
House 103 and the Double Church,,,information,,,,,,,32.3257916,36.369958
Entering the Neighborhood,,,information,,,,,,,32.3257046,36.3692623
The Numerianos Church,,,information,,,,,,,32.3256344,36.3685964
House XVII,,,information,,,,,,,32.3256794,36.3705789
The Southwest Church,,,information,,,,,,,32.3248014,36.3660859
House 35,,,information,,,,,,,32.3251771,36.3660148
Reservoirs and Water Channels,,,information,,,,,,,32.3268929,36.3703365
Agriculture,,,information,,,,,,,32.3270113,36.3701011
Fauna,,,information,,,,,,,32.3277071,36.3698745
The Gate of Commodus,,,information,,,,,,,32.3287916,36.3684683
Welcome to Ancient Umm e-Jimal,,,information,,,,,,,32.3292324,36.3685267
كراج نايل الذيابات,,,caravan_site,,,,,,,32.5368466,36.0252067
كراج برج الحياه,,,caravan_site,,,,,,,32.5360119,36.0254682
كراج شرق الترخيص,,,caravan_site,,,,,,,32.5311034,36.0301666
,,,caravan_site,,,,,,,32.5282241,36.0341914
,,,caravan_site,,,,,,,32.5267159,36.0330368
ديوان آل المناصرة,,,guest_house,,,,,,,32.5258082,35.776944
Basalt Construction Techniques,,,information,,,,,,,32.3258432,36.3707257
Umm al-Jimal City,,,information,,,,,,,32.3246666,36.3683443
Welcome to Umm al-Jimal Walking Trail,,,information,,,,,,,32.324721,36.368302
Outside the House XVII-XVIII Complex,,,information,,,,,,,32.3253692,36.3705732
Religious Life Before Byzantine Umm el-Jimal,,,information,,,,,,,32.325308,36.3684502
House 119 - The Interpretive and Hospitality Center,,,information,,,,,,,32.3248162,36.3684348
The Barracks,,,information,,,,,,,32.3249703,36.3680519
Beyond the Fence,,,information,,,,,,,32.3243867,36.3672144
"Abandonment, Reoccupation and Maintaining a Living Ruin",,,information,,,,,,,32.324619,36.3669978
Byzantine House I and Masa'eid Tent Sites,,,information,,,,,,,32.3247924,36.3665821
House III,,,information,,,,,,,32.3254774,36.3660684
House 49,,,information,,,,,,,32.3258599,36.3661797
The Destruction of Roman Umm el-Jimal: King Gadhima and Queen Zenobia,,,information,,,,,,,32.326133,36.3666652
Umm el-Jimal's Northern Section,,,information,,,,,,,32.3282437,36.3693434
Quarry Reservoir,,,information,,,,,,,32.3263376,36.3701987
,,,viewpoint,,,,,,,32.3278182,36.3705879
House XIII,,,information,,,,,,,32.3269229,36.3697913
,,,viewpoint,,,,,,,32.3261772,36.3698691
"Houses IV, V, VI and VII",,,information,,,,,,,32.3262531,36.3667531
Flora,,,information,,,,,,,32.3264843,36.3673894
The Praetorium,,,information,,,,,,,32.326975,36.3680211
The Cathedral and Community Worship,,,information,,,,,,,32.3276368,36.3682263
When Ancient Meets Modern,,,information,,,,,,,32.3280102,36.3685783
Road view,,,viewpoint,,,,,,,30.2060111,35.4689542
مضافة ال العمري (الرزاقين),,,guest_house,,,,,,,32.4859837,35.7967042
,,,information,,,,,,,32.4270103,36.312317
,Sunset Viewpoint,,viewpoint,,,,,,,30.6197786,35.6265534
قعفور,,,attraction,,,,,,,31.8954648,36.1652518
الطلافيح,,,attraction,,,,,,,31.8591701,35.9307943
وادي الطي,,,attraction,,,,,,,31.8654218,35.9246667
تلاع ابن طلفاح الطلافيح,,,attraction,,,,,,,31.8903123,36.2029265
رجم المبلج سالم الطلافيح,,,attraction,,,,,,,31.8988644,36.1819575
ابوسطل,,,attraction,,,,,,,31.8838899,36.2005176
Atoom Lodge,,,apartment,,,,,,,32.2885577,35.8841452
Wadi adh Dharab Trail,,,information,,,,,,,32.2790815,35.8927866
,,,information,,,,,,,30.3238976,35.4436882
,Petra Bubble Luxotel,,hotel,,,,,,,30.3843199,35.4827558
,,,viewpoint,,,,,,,31.9537533,35.9355466
,,,viewpoint,,,,,,,30.3408284,35.4266586
Hawa Guest house,Hawa Guest house,,guest_house,,,,,,,31.9541363,35.9320799
,,,artwork,,,,,,,32.3216554,36.3664681
,,,artwork,,,,,,,32.3214537,36.3670716
מאגר עשת הדסה,Eshet Hadasa Reservoir,,viewpoint,,,,,,,30.3434056,35.1867414
إستراحة قصر الأزرق,Azraq Rest House,إستراحة قصر الأزرق,hotel,,,,,,,31.8613621,36.8071782
مخيم عشاق الصحراء وادي رم,desert lovers camp,مخيم عشاق الصحراء,camp_site,,,,,,,29.5137982,35.479074
,Wadi Rum Sky,,hostel,,,,,,,29.4818909,35.4110728
,Sunset viewpoint,,viewpoint,,,,,,,29.4862323,35.4108307
عمان,Amman,,hostel,,,,,,Amman,31.9484006,35.9322218
Leen Guest House,,,apartment,,,,,,Wadi Musa,30.315486,35.4709378
,,,apartment,,,,,,,31.256049,35.5221723
Sara Apartment,,,apartment,,,,,,Wadi Musa,30.3156109,35.4704561
Al-Khazna (The Treasury),,,information,,,,,,,30.3221166,35.4517805
Hotel Mena Tyche,,,hotel,,,,,,,31.963027,35.8917618
,,,information,,,,,,,31.9845183,35.8275341
,,,artwork,,,,,,,31.9584764,35.9154174
,,,artwork,,,,,,,31.958432,35.9152954
Hedjaz Jordan Railway Museum,,,museum,,,,,,,31.9685052,35.9681828
,Wadi Rum Nature & Tours Camp,,camp_site,,,,,,,29.5008106,35.431439
Wild Camp,,,camp_site,,,,,,,31.8010361,35.7587147
Wild Camp,,,camp_site,,,,,,,30.5129629,35.467856
Seasonal Bedouin Tents,,,camp_site,,,,,,,30.36817,35.4453695
Wild Camp,,,camp_site,,,,,,,30.2160401,35.3624952
حي مگطاع,,,apartment,,,,,,,31.7111539,35.7912609
Moujib panorama,,,viewpoint,,,,,,,31.4717374,35.7816847
"The Ritz-Carlton, Amman",,,hotel,,,,,,,31.960971,35.8819305
Hadrian's Arch,,,guest_house,,,,3,,Jerash,32.2819773,35.8866289
Trajan inn,,,hostel,,,,,,,31.4332465,35.7924757
,,,viewpoint,,,,,,,31.4332465,35.7924414
,,,viewpoint,,,,,,,30.3233108,35.4711746
,White Dome Trail,,attraction,,,,,,,30.6766062,35.6113639
,Wadi Dana Trail,,attraction,,,,,,,30.6751601,35.6090162
كنيسة الكاثوليك السريان مار يوسف,The Syrian Catholic Church of St. Joseph,كنيسة الكاثوليك السريان مار يوسف,attraction,,,,,,,31.9519654,35.9190004
منزل السيد علي محمود سليمان القبلان ابو سامي,Mr. Ali Al Qublan house,,wilderness_hut,,,,,,,32.3159083,35.8705341
,,,artwork,,,,,,,31.9582113,35.9155623
,Zawaideh desert camp,,camp_site,,,,,,,29.6377812,35.5123309
Wadi Al Ghwer Camp,,,camp_site,,,,,,,30.6244666,35.5018192
,Bedouin Whispers Camp,,camp_site,,,,,,,29.4833812,35.415243
,,,camp_site,,,,,,,29.4798903,35.3903292
,Good place for a tent (+water),,camp_site,,,,,,,30.6015389,35.5400838
,Faraseen Apartments,,apartment,,,,,,,31.7351648,35.9445421
,,,camp_site,,,,,,,29.6234947,35.4999101
,Private room,,guest_house,,,,,,,31.3313362,35.6553658
Hotel Hawa Amman,,,hotel,,,,,,,31.9515632,35.9331905
Uptown Apartments,Uptown Apartments,,hotel,,,,,,Amman,31.996382,35.8736722
Cyber City Refugee Camp,,,camp_site,,,,,,,32.4569234,35.9717423
Wild Camp,,,camp_site,,,,,,,32.443718,35.74644
شقة عمان الكاردنز (m&h),,,hostel,,,,,,,31.8402771,36.0512666
الشاطئ الجنوبي شاطئ 3 غطس (m&h),,,viewpoint,,,,,,,29.4315795,34.9755235
,Tetra Tree Hotel,,hotel,,,,,,,30.3189846,35.4823478
Black Iris,,,hotel,,,,,,,31.721646,35.791596
Wild Camp Ayoun Al-Theeb,,,camp_site,,,,,,,31.7191544,35.6722645
Camp Wadi Mgair,,,camp_site,,,,,,,31.0464938,35.6697055
Camp Burbaita,,,camp_site,,,,,,,30.9774683,35.6563909
عمارة الجوزاء. موسى قنيبي,,عمارة الجوزاء. موسى قنيبي,hotel,,,,,,,32.0189389,35.8754179
Dweik Hotel 1,,,hotel,,,,,,,29.5287738,35.0036868
Amira Hotel,,,hotel,,,,,,,29.5289862,35.0036787
The South Theatre,,,information,,,,,,,32.276995,35.8895621
متحف الدبابات الملكي;RoYAL TANK,,,museum,,,,,,,31.9088072,35.9244481
جرش,Jerash,جرش,information,,,,,,,32.2772926,35.8902501
hotel,,,hotel,,,,,,,30.6805986,35.6116915
Dana horizon hotel,,,hotel,,,,7,,Dana,30.677854,35.6107789
,,,camp_site,,,,,,,29.5888351,35.4962324
Thamudic inscriptions,,,attraction,,,,,,,29.6463377,35.3494857
,,,hostel,,,,,,,32.5394188,35.8500334
,,,picnic_site,,,,,,,30.1976973,35.7264576
,,,motel,,,,,,,30.1979653,35.7356957
,,,picnic_site,,,,,,,29.7758236,35.7446641
,,,picnic_site,,,,,,,29.7736136,35.721672
,,,picnic_site,,,,,,,29.7684763,35.723306
,,,picnic_site,,,,,,,29.7627808,35.7226492
,,,picnic_site,,,,,,,29.7625857,35.7214765
,,,picnic_site,,,,,,,29.7314283,35.7096294
,,,picnic_site,,,,,,,29.6236128,35.5640058
,,,picnic_site,,,,,,,29.8643775,35.6527865
,,,picnic_site,,,,,,,29.8339601,35.6777258
,,,picnic_site,,,,,,,29.8025353,35.7001523
,,,picnic_site,,,,,,,29.7627693,35.7225786
Little Petra,,,attraction,,,,,,,30.3751131,35.4509057
Celino suites,,,hotel,,,,,,,31.9612264,35.9028679
Husban 2,,,camp_site,,,,,,,31.8004375,35.7581434
Husban 2,,,camp_site,,,,,,,31.8003065,35.7581953
معبر الكرامه,,معبر الكرامه,viewpoint,,,,,,,32.6403514,38.659976
بنية ذياب,,,attraction,,,,,,,32.3810562,36.3623123
معبر الكرامه(طريبيل),,معبر الكرامه(طريبيل),viewpoint,,,,,,,32.7391253,39.0062534
ق.ك.السادسه,,ق.ك.السادسه,viewpoint,,,,,,,32.6353908,38.9784165
,,,artwork,,,,,,,32.3294874,36.3682993
O Beach,,,hotel,,,,,,,31.6833499,35.5749712
الجسر الاردن,,,hotel,,,,,,,31.8907619,35.5770159
جسر الاردن,,,viewpoint,,,,,,,31.8887307,35.5774913
,Gap in fence (way down to Dead Sea),,attraction,,,,,,,31.599924,35.5618229
Wadi Zarqa Ma'in,,,attraction,,,,,,,31.6181229,35.5673189
Amman Inn Hotel,Amman Inn Hotel,,hotel,post_office,,,,,,31.9572152,35.8710398
,,,viewpoint,,,,,,,31.6330952,35.6228035
Dead Sea Panorama Complex,,,viewpoint,,,,,,,31.6295406,35.5843623
,,,attraction,,,,,,,31.6180881,35.5669321
,,,viewpoint,,,,,,,31.6494745,35.5932153
Madaba Tourist Information,,,information,,,,,,,31.7164078,35.7969888
,,,artwork,,,,,,,31.7141186,35.7884762
St John Hotel & Rabwat Madaba Sky Bar & Restaurant,,,hotel,,,,,,,31.7152699,35.7936849
,Archaeological Park of madaba virgin mary church,,museum,,,,,,,31.7161544,35.7955083
,dolmens,,attraction,,,,,,,31.7257675,35.7313188
,dolmens,,attraction,,,,,,,31.7358763,35.732451
منزل ابو خليل غراب,Abu Khalil Ghorab,,guest_house,,,,,,,32.1066525,36.2881699
,JOR QRF Camp,,camp_site,,,,,,,32.0983607,36.1232986
الدكتور نجيب,,,apartment,,,,,,,32.0527425,35.904817
home jorden,,,hotel,,,,,,,32.0207424,35.855318
عمان شارع الجمعية,,,motel,,,,,,,32.0208134,35.8548059
الدار,home,,hotel,,,,,,,32.0304736,36.0517224
,,,picnic_site,,,,,,,32.0381017,36.011625
نقابة الأطباء الاردنية,,,artwork,,,,,,,31.9708303,35.8960789
,Sheba hotel,,hotel,,,,,,,31.9795657,35.8978922
الهدير,,الهدير,hotel,,,,,,,31.979547,35.8948705
الهدير للأجنحة الفندقية,,,hotel,,,,,,,31.979553,35.8951449
,Arabel hotel,,hotel,,,,,,,31.9786846,35.8974161
مكتب المهندس ثائر قبعة,Tha'er Qub'a Architects,مكتب المهندس ثائر قبعة,artwork,,,,,,,31.9799795,35.8936561
الجاردنز,,الجاردنز,hotel,,,,,,,31.98256,35.8907772
Fulbright Commission,,Fulbright Commission,attraction,,,,,,,31.9689825,35.8905941
فندق شامي بلازا,Shami plaza Hotel,,hotel,,,,,,,31.9667151,35.9000909
ضراغمة شقق فندقيه,,,hotel,,,,,,,31.965386,35.8851403
Amman West Hotel,Amman West Hotel,,hotel,,,,,,,31.9578457,35.8998672
موقف الفندق,,موقف الفندق,hotel,,,,,,,31.9647542,35.9064417
Cameo Hotel,Cameo Hotel,,hotel,,,,,,,31.9576136,35.8999798
Artal hotel,,,hotel,,,,,,,31.9756694,35.8430608
,,,viewpoint,,,,,,,30.3222291,35.4502205
Bait Ali Camp,,,hostel,,,,,,,29.6859063,35.428379
براك السحيم /جاوه,,,attraction,,,,,,,32.3267861,37.026047
The Inscriptions Museum of Northern Badia,,,museum,,,,,,,32.1985591,37.1104026
تل الذايد,,,attraction,,,,,,,32.3544266,36.3823318
رسم الحصان,,,attraction,,,,,,,32.3702614,36.4231298
ابو العظام,,,attraction,,,,,,,32.3722456,36.3664542
,,,artwork,,,,,,,32.3371499,36.3569114
Crowne Plaza,,,hotel,,,,,,,31.7068514,35.5839231
,,,viewpoint,,,,,,,31.6205935,35.6037041
,,,viewpoint,,,,,,,31.614013,35.6113444
,,,viewpoint,,,,,,,31.6189387,35.6078897
Mariam Hotel,,,hotel,,,,,,,31.7242464,35.7950427
Madaba Grand Hotel,,,hotel,,,,,,,31.7247314,35.7952756
Ruman,,,hotel,,,,,,,31.7252294,35.7955217
,,,artwork,,,,,,,31.728685,35.784068
Moab Land Hotel,,,hotel,,,,,,,31.717714,35.7935538
Pilgrim's House,,,hotel,,,,,,,31.7174944,35.7938689
,,,artwork,,,,,,,31.689983,36.3485103
بيت أبو يزن,Abu Yazan building,,apartment,,,,,,,32.0953556,36.0905711
منزل احمد ابو لاوي,,,alpine_hut,,,,,,,32.0990215,36.0839757
منزل نصري سعاده,,,caravan_site,,,,,,,32.0991129,36.1009621
زيدان ضيافة,,زيدان ضيافة,guest_house,,,,,,,32.0945849,36.1065776
,,,apartment,,,,,,,32.0550279,35.8817607
ريان الحريري,,,apartment,,,,,,,32.060602,35.8902971
سامر انور الحريري,,,apartment,,,,,,,32.0602736,35.8882465
إشارة الدوريات الخارجية,Al Jubihah,,apartment,,,,,,,32.0239135,35.8548671
منزل صالح جرار,,,guest_house,,,,,,,32.0236071,35.8544864
زرقاء,,زرقاء,guest_house,,,,,,,32.0404507,36.0741817
القصر,El Qasr Howard Johnson,القصر,hotel,,,,,,,31.9735338,35.8982324
شقة عمان الكاردنز (m&h),,,hostel,,,,,,,31.9838719,35.8933849
ماكدونلز y,,,attraction,,,,,,,31.9828405,35.8906557
سما باريس,,,hotel,,,,,,,31.9835441,35.8919493
عمرعوده الرشيد,,,guest_house,,,,,,,31.9827252,35.9207841
Al Hamra,,الحمراء,viewpoint,,,,,,,32.4407706,36.1501601
Jubaiha Amusement City,Jubaiha Amusement City,,theme_park,,,,,,,32.0472083,35.8729572
الرويشد,,,viewpoint,,,,,,,32.505399,38.2074269
,,,artwork,,,,,,,31.9586246,35.9149317
قرقوش ، اربد ، الأردن,"Qarqosh, Irbid, Jordan",,attraction,,,,,,,32.7108432,35.8724766
منزل عمي سليمان الوريكات,,,guest_house,,,,,,,32.0856231,35.8607653
ابو السائد,ابو السائد شقة,ابو السائد شقة,apartment,,,,,,,31.913178,35.884551
,,,picnic_site,,,,,,,31.9734255,35.8333082
القهقار,,,viewpoint,,,,,,,32.3156617,35.8372526
,,,information,,,,,,,32.2764744,35.8908701
Jerash Museum,,,museum,,,,,,,32.2779722,35.8916245
حديقة الامير هاشم,Prince Hashem Park,,attraction,,,,,,,31.9772073,35.950218
الهدير للأجنحة الفندقية,,,hotel,,,,,,,31.9795639,35.8951446
Easy Inn,,,hotel,,,,,,,31.9887508,35.8750123
جرش,Hadrian's Gate Hotel,جرش,hotel,,,,4,,,32.2722406,35.8917833
,,,artwork,,,,,,,32.2737603,35.8966704
,Zarqa - Jerash Rs ( Land 379 ),,camp_site,,,,,,,32.2476146,35.9770218
منزل عمي هليل الاردن مغير السرحان,,,caravan_site,,,,,,,32.4584856,36.2070331
فندق درة المنصور,Durra Mansur Hotel,,motel,,,,,,,31.9715096,35.8435123
منزل صالح الأحمد,,منزل صالح الأحمد,apartment,,,,,,عمان,31.9477001,35.8815988
,Diplomat Apartments,,apartment,,,,,,,31.9488018,35.882932
,Naima Amman App,,apartment,,,,,,,31.9541316,35.8721324
Amman Inn,Amman Inn,,hotel,,,,,,,31.9561011,35.8697421
Officer house,,,apartment,,,,,,,31.9369542,35.8663601
Lorries,,,apartment,,,,,,,31.9362556,35.865806
البيت,,,caravan_site,,,,,,,31.9364487,35.8608611
Loretta,,Loretta Australian,apartment,,,,,,,31.9364016,35.8613359
,Olive Tree,,hotel,,,,,,,31.9425852,35.858393
منزل نبيل الخطيب,,,apartment,,,,,,,31.8699065,35.842963
,,,information,,,,,,,31.7671004,35.7272842
The mosaics of the Diakonikon,,,information,,,,,,,31.7681812,35.7254646
Memorial of Moses,,,information,,,,,,,31.7681018,35.7254212
Siyagha Monastery,,,information,,,,,,,31.7677562,35.7255804
بيت ست مي,,,apartment,,,,,,,31.9696515,35.8628431
My Home البيت,,,motel,,,,,,,31.979482,35.8515204
Ats,,,apartment,atm,,,,,,31.9988936,35.8809205
الززززززز,اللبد,,hostel,,,,,,,31.9557827,35.8515313
سد الوالة,,,attraction,,,,,,,31.5692029,35.8026101
سيراميك,,,artwork,,,,,,,31.9107125,35.894017
,,,viewpoint,,,,,,,32.0179929,36.3869116
work,,,artwork,,,,,,,32.0063343,36.0074231
طبربور/عمان/نصر,,,apartment,,,,,,,32.0060376,35.9390732
Mos place,Mos place,,apartment,,,,,,,32.0215363,35.8835562
,Hw,,apartment,,,,,,,31.9947137,35.8432028
مطعم فروجنا,,,artwork,,,,,,,31.9582203,35.8656216
مخبز السفراء,,,artwork,,,,,,,31.9585325,35.8649659
ابو ناصر,,,caravan_site,,,,,,,32.0332651,35.8228785
,,,hotel,,,,,,,31.9983562,35.8259398
سد راجل,,,attraction,,,,,,,31.8132593,37.1607023
فندق الفنار بالاس,Al Fanar Palace Hotel,فندق الفنار بالاس,hotel,,,,,,,31.9969156,35.8834801
الجوهرة الأجنحة الفندقية,Al-Jawhara Hotel,,hotel,,,,,,,32.0086361,35.8837987
وزارة الثقافة,,,artwork,,,,,,,31.9897972,35.8792586
دوار الواحة y,,,attraction,,,,,,,31.9889324,35.8742963
Arena Space,Arena Space Hotel,,hotel,,,,,,,31.9855248,35.8772949
بيت صفوان,Safoun house,,guest_house,,,,,,,32.0303984,35.8580502
بيت صفوان,,,guest_house,,,,,,,32.0307707,35.8578073
وادي الباعج الشمالي,,,attraction,,,,,,,32.3802935,36.3429257
,,,information,,,,,,,32.4267182,36.3139256
,,,information,,,,,,,32.426536,36.3124839
,,,information,,,,,,,32.4271461,36.3131055
الدرزي رسم قديم,,,attraction,,,,,,,32.3603736,36.3395503
البغلاة,,,attraction,,,,,,,32.3678379,36.3265504
المذبح رسم قديم,,,attraction,,,,,,,32.327215,36.3322194
النوم,stars,النجوم,apartment,,,,,,,31.9695938,35.8693491
ACOR,ACOR,,museum,,,,,,,32.0088115,35.8682274
فندق ريو الأردن,Rio Jordan Hotel,فندق ريو الأردن,hotel,,,,,,,32.0247928,35.8517311
,Gallery Hotel,,hotel,,,,,,,31.9533652,35.930026
Jordan River Hostel,Jordan River Hostel,,guest_house,,,,,,,31.9560008,35.9313791
,,,viewpoint,,,,,,,31.9564697,35.9331007
Liv Weibdeh Hotel Suites,,,hotel,,,,,,,31.9562773,35.9284537
ساحة باريس,Paris Circle,ساحة باريس,attraction,,,,,,,31.9557361,35.9279456
,,,viewpoint,,,,,,,31.9557954,35.9223073
Nomads,,,hotel,,,,,,,31.9512863,35.9260591
,Hostel 1930,,hostel,,,,,,,31.9510054,35.9259663
Jabal Amman Residents Association,,,information,,,,,,,31.9492688,35.9275109
Ra'as Al-Ein Galleria,,,artwork,,,,,,,31.9443913,35.9214263
ساحة النخيل,Palms Plaza,,attraction,,,,,,,31.9453348,35.9283437
نزل خروب,Carob Hostel,,hostel,,,,,,,31.9587592,35.9302473
الخطوط الجوية العراقية,,,artwork,,,,,,,31.9598217,35.9208574
La Locanda Hotel,,,hotel,,,,,,,31.9582534,35.921552
حديقة المأمونية,,,artwork,,,,,,,31.9631438,35.9202346
شقق الجمل,,,motel,,,,,,,31.9974377,35.8770099
Shaker Melhem,,,guest_house,,,,,,,31.9972088,35.8756431
wj,,wj,attraction,,,,,,,31.9964335,35.8814384
روضة المورد النموذجية,,,apartment,,,,,,,31.9954074,35.8761792
Raouche,,,hotel,,,,,,,32.005447,35.8792562
اياد العورتاني,,,caravan_site,,,,,,,32.0160063,35.8767735
,Grand Palace Hotel,,hotel,,,,,,,31.9765956,35.9051572
Rose Beity Hotel,,,motel,,,,,,,31.9771343,35.9029635
فندق لو غراند عمان,,,hotel,,,,,,,31.9699613,35.905784
عمارة عمر المختار 2 شلبه,,عمارة عمر المختار 2 شلبه,motel,,,,,,,31.9724403,35.911905
عمارة عمر المختار,,عمارة عمر المختار,hotel,,,,,,,31.9715817,35.91296
كمال اردن,,,guest_house,,,,,,,31.9745068,35.9136373
الكرمل للشقق الفندقية,,,hotel,,,,,,,31.972832,35.9112264
Regency Palace Hotel,Regency Palace Hotel,,hotel,,,,,,,31.9757627,35.9066233
ساندي بلاس,Sandy palace,,hotel,,,,,,,31.9686173,35.9157894
قصر جدة,,,hotel,,,,,,,31.9684671,35.9130684
منزل خلدون السويطي 2,,,hostel,,,,,,,31.9960918,35.9054386
,,,hostel,,,,,,,31.9960127,35.9054566
,Danske damer,,apartment,,,,,,,31.9843665,35.8849762
منزل ضياء صلاحات,,,hostel,,,,,,,31.8781536,35.8623865
شقتنا,,,motel,,,,,,,31.9903723,35.8579616
Mövenpick,,,hotel,,,,,,,31.9861377,35.8645485
Younes فندق سميراميس,,,attraction,,,,,,,31.9901603,35.8716222
فندق سميراميس,Samira Miss Hotel,فندق سميراميس,hotel,,,,,,,31.9900407,35.8715063
Ibis Amman,Ibis Amman,,hotel,,,,,,,31.9903937,35.8649198
ريم البوادي,,ريم البوادي,attraction,,,,,,,31.990895,35.8657266
حسين/ خلدا,,,apartment,,,,,,,31.9925607,35.8620057
العليا,,,apartment,,,,,,,31.9966419,35.8725821
,,,camp_site,,,,,,,31.9992508,35.8671776
Milad,Milad,,apartment,,,,,,,31.9992785,35.8665021
عمارة البترا,,,apartment,,,,,,,31.9963481,35.8601338
بيت حنان و رمزي,Hanan and Ramzi home,,apartment,,,,,,,31.9998898,35.8494662
City Rose Hotel Suites,City Rose Hotel Suites,,hotel,,,,,,,31.9968144,35.8721869
كراج فلاح الذيابات,,,caravan_site,,,,,,,32.5520263,36.0186593
كراج جنوب الوكاله,,,caravan_site,,,,,,,32.5517956,36.020746
,Dawas Abed,,apartment,,,,,,,32.5864623,35.8474686
نبع المغاسل,,,yes,,,,,,,32.3173742,35.8396586
الركبان,,,artwork,,,,,,,33.3242509,38.7595148
كازية طريبيل,,كازية طريبيل,viewpoint,,,,,,,32.6672467,38.9350349
مدخل بير غصين,,مدخل بير غصين,picnic_site,,,,,,,32.389931,37.8636458
الزيتات رسم قديم,,,attraction,,,,,,,32.3720848,36.2420006
Home 2,,,guest_house,,,,,,,31.9199032,35.8869766
,Japanese garden,,attraction,,,,,,,31.9367219,35.8895633
Dr. Abdulqader A'abed,,,artwork,,,,,,,31.9028831,35.9143342
عمارة ابو دبور 6,,,hostel,,,,,,,31.8969153,35.918658
فندق قصر السلطان,,فندق قصر السلطان,hotel,,,,,,,31.9146707,35.9137824
The Wanderers Hostel,,,hostel,,,,,,,31.9522918,35.9177063
Shepherd Hotel,,,hotel,,,,,,,31.949397,35.9182325
,,,artwork,,,,,,,31.9586212,35.9149988
Aljazeera Hotel,Aljazeera Hotel,,hotel,,,,,,,31.9649339,35.9147449
حديقة حيوانات,,,viewpoint,,,,,,,31.8319279,35.9103441
الصباح للشقق الفندقية,Sabbah hotel apartments,الصباح للشقق الفندقية,hostel,,,,,,,31.9624827,35.9170121
,Fabrizia house,,apartment,,,,,,,31.9574986,35.917638
قناة الاردن اليوم,Jordan alyum,,attraction,,,,,,,31.9554016,35.9129715
iRealRent Thi Qar (Apartments 4 Rent),,,hostel,,,,,,,31.9560279,35.9134182
,Mariam Host,,guest_house,,,,,,,31.952368,35.91216
,The Y,,hotel,,,,,,,31.9527207,35.9194567
Delmon Suites,,,hotel,,,,,,,31.9522631,35.9029539
Red Rose Hotel and Suites,Red Rose Hotel and Suites,,hotel,,,,,,,31.9666798,35.8749827
Ocean Hotel,Ocean Hotel,,hotel,,,,,,,31.9673356,35.8748116
فندق ربوة الزهور,,,hotel,,,,,,,31.9193439,35.9239426
,ICRC office,,attraction,,,,,,,31.9456961,35.8658519
فندق شجرة الزيتون عمان,,,attraction,,,,,,,31.9433788,35.8568978
قاع البنزين,,,attraction,,,,,,,31.8339774,37.2118211
bebo,,,attraction,,,,,,,31.8256078,35.6952567
ضياء ابو العلا,,,caravan_site,,,,,,,31.8393087,35.6975352
,Town of Mount Nebo hotel,,hotel,,,,,,,31.7604925,35.7449094
,,,artwork,,,,,,,31.7538901,35.7657412
billllllal,,,attraction,,,,,,,31.8200138,35.7764655
ابو الوليد الثوابي,,,caravan_site,,,,,,,31.8610097,35.7593943
,,,artwork,,,,,,,31.7496551,35.7445134
منزل زياد العبد ابو محمد,,,attraction,,,,,,,31.9708806,35.8558995
,Moh'd DMC appartment,,apartment,,,,,,,31.9766837,35.8456478
Seven Star,,Seven Star,hotel,,,,,,,31.9522066,35.8584511
,rozana,,hotel,,,,,,,31.9533489,35.8583147
,Panda Hotel,,hotel,,,,,,,31.9558478,35.8632268
Al Waleed,Al Waleed,,hotel,,,,,,,31.9579498,35.8613486
,no.7 apt of Kim MIL,,apartment,,,,,,,31.9679155,35.8349238
Larsa Hotel,Larsa Hotel,فندق لارسا,hotel,,,,,,,31.964693,35.8424583
منتزه غمدان,,منتزه غمدان,artwork,,,,,,,31.8602289,35.8936272
ناصر ابوريان,naser abu rayyan,,guest_house,,,,,,,32.0039823,35.9486297
عدنان صلاحات,,,caravan_site,,,,,,,32.0059407,36.0247481
منزل ابو ابراهيم ريان,,,guest_house,,,,,,,32.012992,36.0255383
,منزل ابو اشرف استيتي,,caravan_site,,,,,,,32.0152175,36.0410812
شقة ابو عدنان الحريري,,,apartment,,,,,,,32.0633979,35.8909501
ابو  ابراهيم  المزرعاوي,,,guest_house,,,,,,,32.0200665,35.8938849
منزل مفيد عارف شتيوي,,,alpine_hut,,,,,,,32.0221051,35.8919595
diğerlerinin evi,,,guest_house,,,,,,,32.0299422,35.8781405
دوار بديعة,,,attraction,,,,,,,32.526813,35.8439617
جبل ام الدرج,,,alpine_hut,,,,,,,32.3163894,35.8001046
,Tabqet Fahel,,attraction,,,,,,,32.4367368,35.5957466
,,,caravan_site,,,,,,,32.5280733,36.0320286
كراج ابن البلد,,,caravan_site,,,,,,,32.5377678,36.0249732
,,,caravan_site,,,,,,,32.5370466,36.0178889
القصبات,,القصبات,attraction,,,,,,,32.4639077,35.6307044
Natural Arch,,,attraction,,,,,,,32.4648258,35.619562
Tourist Information,,,information,,,,,,,32.0386941,35.7261936
منزل حسام قموه,Hussain Gammoh Home,,apartment,,,,,,,31.9797413,35.8434054
منزل حسام قموه,Hussain Gammoh Home,,apartment,,,,,,,31.9797251,35.8434399
هديل الاردن,,,apartment,,,,,,,31.9840148,35.8531255
Umm Qais Hotel,,,hotel,,,,,,,32.6542629,35.6837299
ديوان القسايمه,Al Qasaimeh lounge,ديوان القسايمه,guest_house,,,,,,,32.5244172,35.7877968
Spa Village Hotel,Spa Village Hotel,,hotel,,,,,,,32.6833324,35.6621926
חוות התנינים,Crocodile farm,,attraction,,,,,,,32.6853309,35.6670928
Qalet Al Jabal Hotel,,,hotel,,,,,,,32.3294399,35.7400094
,,,information,,,,,,,32.3254559,35.7277939
,,,attraction,,,,,,,32.2806156,35.8929364
The Church of the Propylea,,,information,,,,,,,32.2811332,35.892804
Propylaeum of the Sanctuary of Artemis,,,information,,,,,,,32.2811542,35.8926183
The Catedral,,,information,,,,,,,32.2803736,35.8921854
The Nymphaeum,,,information,,,,,,,32.2804713,35.8922449
The Fountain Court,,,information,,,,,,,32.2806928,35.8912854
church of St. Theodore,,,information,,,,,,,32.2809603,35.8905556
The church of Saints Peter and Paul,,,information,,,,,,,32.2800782,35.8895982
,Full Panorama To Archaelogical Site Jarash,,apartment,,,,,,,32.2822104,35.8865371
Rami Abu Ein,,,hostel,,,,,,,32.5394253,35.8501218
מצפה גאון הירדן,,,viewpoint,,,,,,,32.4362243,35.5551428
Olive Branch Resort,,,hotel,,,,,,,32.2962867,35.855107
Olive Branch Campsite,,,camp_site,,,,,,,32.2956399,35.8546541
,,,hotel,,,,,,,32.3654968,35.8099374
سد الملك طلال,,,attraction,,,,,,,32.1923807,35.8009251
,RSCN Dibeen Center,,information,,,,,,,32.241869,35.8301113
,,,viewpoint,,,,,,,32.4443788,35.6172182
,,,viewpoint,,,,,,,32.4447365,35.6156464
منزل عامر هلسا,Amer Halasa Home,,apartment,,,,,,,31.9897425,35.847103
سد كفرنجة,,,attraction,,,,,,,32.2679199,35.6452228
ابو هنانو الحريري,,,apartment,,,,,,,32.5492794,35.8078675
,,,attraction,,,,,,,32.6489072,35.6823486
Beit Al-Baraka,,,guest_house,,,,3,6,,32.6552962,35.683602
,,,viewpoint,,,,,,,32.6634833,35.6604833
,,,viewpoint,,,,,,,32.6571404,35.6772251
,,,caravan_site,,,,,,,32.6612983,35.6783467
,,,viewpoint,,,,,,,32.6688705,35.6413103
,lake look out Jordan is real Syria,,viewpoint,,,,,,,32.6604412,35.6597703
,,,picnic_site,,,,,,,32.4757794,35.7080003
ارض ٢٧٩ - خاص احمد قديمات,Zarga-Jerash Land 279,,camp_site,,,,,,,32.2894164,35.9873558
,Visitor Center,,information,,,,,,,32.2764912,35.8910899
The West Souk and Military Barracks,,,information,,,,,,,32.2766415,35.8909366
,Jerash Best Viewpoint,,viewpoint,,,,,,,32.281389,35.8907921
The North Tetrapylon,,,information,,,,,,,32.2819365,35.8931601
,,,artwork,,,,,,,32.2818424,35.8952254
Abu Ayser,,,artwork,,,,,,,32.4943357,35.797442
مضافة ال العمري (المخاتير),,,guest_house,,,,,,,32.4868307,35.796818
مضافة ال العمري (عبد الغني),,,guest_house,,,,,,,32.4884709,35.798542
كراج الذيابات,,,caravan_site,,,,,,,32.545032,36.0171165
عبد الفتاح ابو الامين,,,apartment,,,,,,,32.5811798,35.8655509
,Full panorama to archeological Site Jerash - Studio,,apartment,,,,,,,32.2882749,35.8839693
jerash hills,,,hotel,,,,,,,32.2903335,35.8820597
Ruins Wall,,,guest_house,,,,,,,32.2853084,35.892165
,,,camp_site,,,,,,,32.5411139,35.8405071
دوار الجامعة,,,attraction,,,,,,,32.5411224,35.8511647
اشارة الاسكان,,,attraction,,,,,,,32.5439397,35.8504
فندق الجود,,,hotel,,,,,,,32.5394793,35.8496536
صالات السفير للافراح,,,attraction,,,,,,,32.5223907,35.8739451
صالات السفير للأفراح,,,artwork,,,,,,,32.5223429,35.8739001
M. S Resident,M. S Residency,M. S Residency,viewpoint,,,,,,,32.52323,35.850909
اشارة النسيم,,,attraction,,,,,,,32.5312321,35.8524804
The Jordan Archaeological Museum,,,information,,,,,,,31.9539125,35.9341076
ابراهيم الشاعر,,,attraction,,,,,,,32.5722335,35.8682046
يبابيع سوف,,,attraction,,,,,,,32.3173612,35.8394512
المنصورة,,,viewpoint,,,,,,,32.3192169,35.8344673
ابو رويس,,,viewpoint,,,,,,,32.3134058,35.8284856
مزرعة الدكتور يوسف,,,apartment,,,,,,,32.3289657,35.8605332
,Marka Military Airport,,attraction,,,,,,,31.9666476,35.995256
العشم,,,hotel,,,,,,,32.7135994,35.73139
منزل مفيد عارف اشتيوي,,,alpine_hut,,,,,,,31.9639316,35.987036
بيت ابرار,,,caravan_site,,,,,,,31.9476297,36.0008279
الجسور العشره,,,information,,,,,,,31.9392604,35.9560108
Home Om Nowwarah,,Home Om Nowwarah,attraction,,,,,,,31.9281591,35.9672229
,,,viewpoint,,,,,,,31.9535059,35.9357098
,,,artwork,,,,,,,31.9540023,35.9346718
Amman: a view towards the west,,,information,,,,,,,31.9536683,35.9340222
,,,viewpoint,,,,,,,31.9536933,35.9339558
,,,viewpoint,,,,,,,31.9549312,35.9352906
فندق برج الأردن,Jordan Tower Hotel,فندق برج الأردن,hotel,,,,,,,31.9516775,35.937332
,,,viewpoint,,,,,,,31.9538377,35.9393459
Roman Hotel,,Roman Theater Hotel,apartment,,,,,,,31.9531163,35.9393343
Haroon Hotel,,,hostel,,,,,,,31.9533008,35.941976
1234,1234,,apartment,,,,,,,32.0028035,35.9521736
خالد عصفور,,,guest_house,,,,,,,31.9935234,35.9391294
Y مدينة ملاهي الاذاعة والتلفزيون,,,attraction,,,,,,,31.9116702,35.9185678
فندق جوهرة الزهور,,,hotel,,,,,,,31.9186552,35.9227504
مهندس. رائد حسني محمود,Eng. Ra'ed H Al-Qubbaj,,hostel,,,,,,,31.8691762,35.9215669
عشيره الطلافيح,,,attraction,,,,,,,31.8582816,35.9315124
البيت,,منزل حماد الطلافيح,camp_site,,,,,,,31.8577087,35.9304413
الطلافيح,,,attraction,,,,,,,31.8574871,35.931645
فندق المعمورة,,,hotel,,,,,,,31.9209071,35.9375884
,,,attraction,,,,,,,31.8055109,35.9201206
Ministry of Tourism,,,information,,,,,,,31.7015971,35.9511172
مركز الالباني للدراسات والأبحاث العلمية,,,viewpoint,,,,,,,31.8999488,35.9298529
Scale colorate,,,attraction,,,,,,,31.9513806,35.9345359
,,,viewpoint,,,,,,,31.9501059,35.9367575
متحف الكروان,,,hotel,,,,,,,31.9475056,35.9346321
,Tourist Information Office,,information,,,,,,,31.9516149,35.9375805
المدرج الروماني,,,viewpoint,,,,,,,31.9522286,35.9386382
أرضنا بجرش,,أرضنا بجرش,viewpoint,,,,,,,32.3081651,35.9085735
Agora and Civic Basilica,,,information,,,,,,,32.2827325,35.8928905
RSCN Azraq Lodge,,,hotel,,,,,,,31.8359285,36.8075883
Coin museum,,,museum,,,,,,,31.9571022,35.9313073
DAR,DAR,,hotel,,,,,,,31.9564344,35.9311551
The Boutique Hotel Amman,,The Boutique Hotel Amman,hotel,,,,,,,31.9525717,35.9306288
Art Hotel,,,hotel,,,,,,,31.9523607,35.9325286
The Cabin Hostel,,,hostel,,,,,,,31.9525236,35.932519
,,,hotel,,,,,,,31.9526023,35.9320725
Art street,,,artwork,,,,,,,31.9528271,35.9318487
آرمات عمان,signs of Amman,,museum,,,,,,,31.9527242,35.9321579
فندق منصور,Mansour Hotel,فندق منصور,hotel,,,,,,,31.9522852,35.9328553
Farah Hotel,Farah Hotel,,hotel,,,,,,,31.9518214,35.9329549
Beit Shkair,,,museum,,,,,,,31.9476618,35.9319837
Abbasi Palace Hotel,,فندق القصر العباسي,hotel,,,,,,,31.9473785,35.9344544
مطل جاوا جبل ابن طلفاح,,,attraction,,,,,,,31.8576674,35.9308229
الوساد,,,attraction,,,,,,,31.8599795,37.9841712
guest house hazem,,,guest_house,,,,,,,31.8792289,36.8251611
قاع الحفيره,Alhafira,,attraction,,,,,,,31.147356,36.1886566
سد الجلات,,,attraction,,,,,,,31.4743076,36.4186416
,سد الفيضه,,picnic_site,,,,,,,32.657733,38.1590442
,مقطاعية وادي الفيضه,,picnic_site,,,,,,,32.5792325,38.2387949
مسجد المدينة الصناعية سحاب,,,viewpoint,,,,,,,31.8505936,36.0057806
شعيب الدمنه,,,attraction,,,,,,,31.8737766,36.2156279
أبو صياح,,,museum,,,,,,,31.9958541,36.0525312
تل جرمى,,,attraction,,,,,,,31.7852267,37.1364379
بيتي,My home,,viewpoint,,,,,,,31.9347269,35.9882083
,,,viewpoint,,,,,,,31.9551531,35.9340819
"The Open Cistern ""Birka""",,,information,,,,,,,31.9554232,35.9346261
,,,viewpoint,,,,,,,31.9546162,35.9366846
Amman Citadel,Amman Citadel,,information,,,,,,,31.9544825,35.936707
,,,artwork,,,,,,,31.9581714,35.9158171
,,,artwork,,,,,,,31.958209,35.9156816
منزل خلدون السويطي,,,hostel,,,,,,,31.961845,35.9303399
عمر عبدالستار نواس,Omar AbdStar Nawas,,apartment,,,,,,,31.9830954,35.9226533
سحاب بالاردن,,,viewpoint,,,,,,,31.8744562,36.0031074
Temperature,,,information,,,,,,,29.5335271,34.995178
,7 Days,,hotel,,,,,,,29.5229869,35.0033031
Nairoukh Hotel,,,hotel,,,,,,,29.5267724,35.007832
,,,information,,,,,,,32.1814397,35.621809
walaa house,walaa house,,guest_house,,,,,,,31.9902073,35.9579584
خالو ياسين,,خالو ياسين,motel,,,,,,,32.0340525,35.8772345
AlFares Tourist Hotel,,,hotel,,,,,,,30.8402567,35.6510176
شارع الستين ٦٠,,,viewpoint,,,,,,,31.8390396,36.0542536
um al-Jimal Archaeological Site Visitor Center,,,information,,,,,,,32.3239718,36.3684906
,سلطان الغياث,,picnic_site,,,,,,,32.6043547,38.2171306
,سلطان الغياثي,,picnic_site,,,,,,,32.6042794,38.21727
بير غصين الشارع الرئسي,,بير غصين الشارع الرئسي,picnic_site,,,,,,,32.4046595,37.8588143
,,,caravan_site,,,,,,,31.9001608,35.8606689
دار عمي أبو جهاد,,دار عمي أبو جهاد,guest_house,,,,,,,31.8938979,35.836585
Bait Zaman,Beit Zaman Hotel Resort,بيت زمان,hotel,,,,,,,30.3268031,35.4872291
Amman Pasha Hotel,,فندق باشا عمان,hotel,,,,,,,31.9525219,35.9378725
Jubaiha's Apartment.,Jubaiha's Apartment.,,guest_house,,,,,,,32.0209278,35.8910833
Jubieha's House,Jubieha's House,,guest_house,,,,,,,32.0208984,35.8911825
,,,caravan_site,,,,,,,31.8987839,35.8411629
Najjar 6,Najjar 6,,apartment,,,,,,,31.9388532,35.8985106
,,,caravan_site,,,,,,,32.0299842,35.9287781
Seven Roses Hotel,Seven Roses Hotel,,hotel,,,,,,,31.9556742,35.8567512
Crystal Suites Hotel,Crystal Suites Hotel,,hotel,,,,,,,31.9627023,35.8828826
وادي الباعج الجنوبي,,,attraction,,,,,,,32.3652226,36.347503
العراضي  رسم قديم,,,attraction,,,,,,,32.3460551,36.3289415
,,,information,,,,,,Aqaba,29.4097567,34.9801554
لجنة دعم المساجدوالمشاريع الخيرية,,,museum,,,,,,,31.9682631,35.9102166
راس عيطا,,,attraction,,,,,,,31.8132659,37.1606928
منزل المهندس مجدي طلبه,,,apartment,,,,,,,31.9915094,35.8873096
Seedu's House,,,guest_house,,,,,,,31.936774,35.9433416
,,,viewpoint,,,,,,,31.5936484,37.1225627
راس عمر,,,attraction,,,,,,,30.523354,37.4209986
ديريوسف,,,artwork,,,,,,,32.4947994,35.7978026
Al Hamed Housing,,,hostel,,,,,,,32.5395911,35.85105
Amman Exhibition Park,,,attraction,,,,,,,31.9245915,35.8605371
Mohammad,,,hostel,,,,,,,32.0195635,35.8551956
بيت الهرش,,بيت الهرش,caravan_site,,,,,,,31.9280323,35.900562
,,,picnic_site,,,,,,,29.7652524,35.7164401
J Plaza Hotel,,,hotel,,,,,,,29.5283501,35.0061315
Rainbow reef,,,attraction,,,,,,,29.4325243,34.9737847
,,,information,,,,,,,29.4314584,34.9752325
Cedar Pride Shipwreck,,,attraction,,,,,,,29.4310657,34.9731609
Underwater military museum,,,attraction,,,,,,,29.4464701,34.9671006
King abdullah reef,,,attraction,,,,,,,29.4397672,34.9685438
,,,artwork,,,,,,,29.5751636,34.9783017
,Aqaba Bird Observatory,,information,,,,,,,29.5754218,34.985699
,,,attraction,,,,,,,29.4014304,34.9688328
Tank,,,attraction,,,,,,,29.4187751,34.9716597
,,,attraction,,,,,,,29.3605988,35.4040762
مدخل نغره,,,attraction,,,,,,,29.3673745,35.4217369
Bait Al-aqaba,,,hotel,,,,,,,29.4262846,34.979498
,,,hotel,,,,,,,29.412738,34.9783442
,,,hotel,,,,,,,29.4134295,34.9781811
فندق مارينا بلازا,Marina Plaza,فندق مارينا بلازا,hotel,,,,,,,29.4103176,34.98099
,,,camp_site,,,,,,,29.5158552,35.4332261
Al-Mansi,,,guest_house,,,,,,,32.5252136,35.8492485
evim,,,guest_house,,,,,,,32.021011,35.8689527
,,,camp_site,,,,,,,31.4374238,35.7995403
ابو طنطور,,,attraction,,,,,,,32.3563661,36.3604758
البغلات,,,attraction,,,,,,,32.3685066,36.3314579
yanlış yol,,,guest_house,,,,,,,32.0214921,35.8688014
evim,,,guest_house,,,,,,,32.0204467,35.8696179
الإبراهيمية,,,camp_site,,,,,,,32.4297761,35.8260028
مدرسة الخمائل,,,artwork,,,,,,,31.9173556,35.8496864
Al Lahun,,,viewpoint,,,,,,,31.4616939,35.8474869
Beach Hotel,,,hotel,,,,,,,29.5264236,35.0022384
,Alreshik hotel,,hostel,,,,,,,29.5265604,35.0033905
,Crystal hotel,,hotel,,,,,,,29.5261341,35.002308
,,,information,,,,,,Aqaba,29.4101459,34.9797543
"Closed road, no way to border",,,information,,,,,,,29.5679932,34.99249
,,,apartment,,,,,,,32.0032586,35.8764922
,sunset view,,viewpoint,,,,,,,29.4569713,35.4357101
,Sunset view,,viewpoint,,,,,,,29.4534222,35.4286451
,Sunset point,,viewpoint,,,,,,,29.4668692,35.4443337
,sunset,,attraction,,,,,,,29.4662294,35.4461714
Um Fruth,,,viewpoint,,,,,,,29.4687267,35.4492316
Um Ghada Rum,,,camp_site,,,,,,,29.442673,35.3344477
صعود الباخرة اليخت العقبة (m&h),,,viewpoint,,,,,,,29.5208917,35.0024981
,,,viewpoint,,,,,,,29.5205623,35.0004224
Roza Beach Hotel,,,hotel,,,,,,,29.5251763,35.0023123
Sea View Hotel,,,hotel,,,,,,,29.5249416,35.0024083
My Hotel,,,hotel,,,,,,,29.5320325,35.0022779
,,,apartment,,,,,,,29.5457318,35.0391371
Panorama Natural Bridge,,,viewpoint,,,,,,,29.4762712,35.4830817
,Natural Bridge,,attraction,,,,,,,29.4783948,35.4750936
,Burdah Bridge Viewpoint,,viewpoint,,,,,,,29.4768113,35.483754
Wadi Rum Fire Camp,,,camp_site,,,,,,,29.4894187,35.4305756
,,,viewpoint,,,,,,,29.4903336,35.4074198
,Mohammed Mutlak Camp,,camp_site,,,,,,,29.4873381,35.3873472
,Wadi Rum Bedouin Tour with a Camp,,camp_site,,,,,,,29.4882619,35.3983492
,Khaled's Camp,,camp_site,,,,,,,29.4868419,35.3940851
,Desert Shine Camp,,camp_site,,,,,,,29.4826788,35.4047075
,,,picnic_site,,,,,,,29.4793555,35.3975884
Chicken rock,,,attraction,,,,,,,29.4736336,35.3917332
,Firecamp,,camp_site,,,,,,,29.4801373,35.4205165
,,,picnic_site,,,,,,,29.7327692,35.7107567
,,,camp_site,,,,,,,29.6308887,35.5092349
,,,picnic_site,,,,,,,29.7625342,35.7132012
,,,picnic_site,,,,,,,29.7562593,35.7086957
,,,viewpoint,,,,,,,32.0384943,36.0994943
,,,artwork,,,,,,,31.9843585,35.8275563
,,,artwork,,,,,,,31.9847028,35.8274097
Maze,,,artwork,,,,,,,31.9871489,35.8267991
مطل بحيرة طبريا,,,viewpoint,,,,,,,32.6644461,35.6778082
,,,picnic_site,,,,,,,31.0734027,36.7582961
Aqaba Trail,,,attraction,,,,,,aqaba,29.533143,35.0071735
فندق دويك 3,,فندق دويك 3,viewpoint,,,,,,,29.5315513,35.0052187
Wadi al Ghuwyar,,,attraction,,,,,,,31.1389066,35.7571799
,,,picnic_site,,,,,,,29.5746278,35.4200013
,Wild Wadi Rum,,attraction,,,,,,,29.5746833,35.418689
,,,camp_site,,,,,,,29.5707411,35.4106924
,,,camp_site,,,,,,,29.5703848,35.4113053
Petroglyphs,,,attraction,,,,,,,29.5717378,35.4110819
,,,viewpoint,,,,,,,29.5676437,35.4140176
,Red sand dune Abu Breshmana near Jabal Um Ishrin,,attraction,,,,,,,29.5631001,35.4433325
Cave,,,attraction,,,,,,,29.7224198,35.4460319
,Siq Um Al Tawaki,,attraction,,,,,,,29.6221723,35.4942718
,Alemaleh camel inscription,,artwork,,,,,,,29.614108,35.480924
,,,camp_site,,,,,,,29.6135418,35.4807173
,,,camp_site,,,,,,,29.6151725,35.4926995
Lawrence Face,,,attraction,,,,,,,29.6197372,35.4933357
Siq Um Al Tawaqi,,,attraction,,,,,,,29.619533,35.4935566
Canyon makharas,,,attraction,,,,,,,29.6176138,35.4546885
,,,camp_site,,,,,,,29.6270273,35.4888954
,,,camp_site,,,,,,,29.6275547,35.4928807
Obeid's Bedouin Life Camp,,,camp_site,,,,,,,29.6289003,35.4869033
rumsky adventuers,,,camp_site,,,,,,,29.6344574,35.4908339
,Sunset Point,,viewpoint,,,,,,,29.6488989,35.4704451
Sun City Camp,,,camp_site,,,,,,,29.656924,35.4796077
Sharah Luxury Camp,,,chalet,,,,,,,29.6578337,35.487665
,,,picnic_site,,,,,,,29.5971874,35.6330827
,,,picnic_site,,,,,,,29.5998944,35.6406728
,,,picnic_site,,,,,,,29.6007432,35.6815643
,,,camp_site,,,,,,,29.6157497,35.5142484
,,,camp_site,,,,,,,29.614129,35.5140364
,Saiel tourist camp,,camp_site,,,,,,,29.6583403,35.4878421
Rum Magic Camp,,,camp_site,,,,,,,29.6383703,35.5037624
,,,camp_site,,,,,,,29.5742441,35.4614535
,,,viewpoint,,,,,,,30.3386741,35.4262492
,,,viewpoint,,,,,,,30.3379378,35.4284932
,,,information,,,,,,,30.3381859,35.4296392
,,,viewpoint,,,,,,,30.3395729,35.4258782
,,,viewpoint,,,,,,,30.3403262,35.4264181
,,,viewpoint,,,,,,,30.3403962,35.4265013
,,,information,,,,,,,30.3378225,35.4306168
,,,viewpoint,,,,,,,30.3370049,35.4303798
,,,attraction,,,,,,,30.3362163,35.4339814
,,,information,,,,,,,30.3234197,35.4444172
Triclinium,Triclinium,,attraction,,,,,,,30.3233416,35.4450473
,,,viewpoint,,,,,,,30.3249259,35.4480719
,,,viewpoint,,,,,,,30.3251888,35.4479663
,,,viewpoint,,,,,,,30.3262484,35.4507966
,,,viewpoint,,,,,,,30.3244025,35.4504519
,,,viewpoint,,,,,,,30.3234329,35.451814
Treasury from above,,,viewpoint,,,,,,,30.3227292,35.4520593
,,,viewpoint,,,,,,,30.3231562,35.4519369
The Outer Siq,,,attraction,,,,,,,30.32302,35.4502825
,,,information,,,,,,,30.3233197,35.4498087
,,,viewpoint,,,,,,,30.3221836,35.4468914
,,,viewpoint,,,,,,,30.3214502,35.446912
,,,information,,,,,,,30.3204233,35.4455281
,,,viewpoint,,,,,,,30.3204452,35.4484753
Beautiful view over the Great Temple,,,viewpoint,,,,,,,30.330129,35.4423523
,,,attraction,,,,,,,30.3290356,35.4419054
,,,information,,,,,,,30.3291875,35.442961
,,,information,,,,,,,30.329854,35.4405013
,,,information,,,,,,,30.329354,35.4398382
,,,information,,,,,,,30.3291328,35.4405867
Columbarium,,,attraction,,,,,,,30.328954,35.4393546
Unfinished Tomb,Unfinished Tomb,,attraction,,,,,,,30.3292481,35.4393665
,,,viewpoint,,,,,,,30.3305172,35.4393677
,,,information,,,,,,,30.3304254,35.4402143
,,,information,,,,,,,30.3301489,35.4402326
ُغروب الشمس / اسرائيل,to the sunset and israeli border,,viewpoint,,,,,,,30.3819669,35.4250058
Ammarin Bedouin Camp,,,camp_site,,,,,,,30.3815497,35.4495047
Petra Sella,,,hotel,,,,,,,30.3201302,35.4834382
Funtain Mouse,,,attraction,,,,,,,30.3225992,35.4848092
,Peace Way Hotel,,hotel,,,,,,,30.3209167,35.4808755
,My Home Petra,,hotel,,,,,,,30.322035,35.4800528
Sabaa,,,hotel,,,,,,,30.3218905,35.4800749
Obelisque,,,artwork,,,,,,,30.3216349,35.4801026
Petra Star Hostel,,,hostel,,,,,,,30.3212859,35.4801376
Petra Capsule Hostel,,,hostel,,,,,,,30.3213533,35.4803074
Rafiki Hostel,,,hostel,,,,,,,30.3232898,35.4793202
The little B&B on the hill,,,guest_house,,,,2,5,,30.3334561,35.4761222
Petra Bed and Breakfast,,,guest_house,,,,4,,,30.3336939,35.4773205
Petra paradise home,,,hotel,,,,,,,30.3294367,35.4798838
,,,viewpoint,,,,,,,30.3984157,35.4865887
Moses Residence,,,hotel,,,,,,,30.321232,35.4807832
,,,viewpoint,,,,,,,30.9684873,35.7628806
Panoramic view & tea shop,,,viewpoint,,,,,,,30.8636668,35.521498
,Wadi Al-Hasa,,attraction,,,,,,,30.8830722,35.6928903
وجهة نظر قلعة كرك,,وجهة نظر قلعة كرك,viewpoint,,,,,,,31.17978,35.7053885
بانوراما قلعة الكرك,,بانوراما قلعة الكرك,viewpoint,,,,,,,31.180855,35.7060707
البرج وادي عربه,,,information,,,,,,,30.5032607,35.3381096
,,,camp_site,,,,,,,30.5371196,35.429636
حمامات عفرا,Hammamat Afra Hot Springs,حمامات عفرا,attraction,,,,,,,30.9677296,35.6422421
,,,viewpoint,,,,,,,30.9547134,35.708545
Wild camping place,,,camp_site,,,,,,,30.9970085,35.7158573
شقق ال الدويك,,,apartment,,,,,,,29.548753,35.0144048
,,,viewpoint,,,,,,,29.5295895,35.4210816
,,,viewpoint,,,,,,,29.5288955,35.4211341
Red Sand Dunes,Sand dune,,attraction,,,,,,,29.5289843,35.4216715
,,,information,,,,,,,29.5205556,35.4233962
,,,attraction,,,,,,,29.5190095,35.4249193
Siq al Khazali,,الخزعلي,attraction,,,,,,,29.5179618,35.4234697
Beduin lifestyle camp,,,camp_site,,,,,,,29.5097524,35.412288
,Good Free Climb Area,,attraction,,,,,,,29.508952,35.4138825
Camp,,,hostel,,,,,,,29.5028388,35.4088944
,,,camp_site,,,,,,,29.5011569,35.4382229
,Welcome to Wadi Rum Camping,,camp_site,,,,,,,29.5152092,35.4405995
,Beduin Camp,,camp_site,,,,,,,29.5137356,35.4508031
,,,camp_site,,,,,,,29.5149446,35.4493487
,Joy of Life,,camp_site,,,,,,,29.5029274,35.4641115
Wadi Rum 7 Pillars Camp,,,camp_site,,,,,,,29.5012904,35.4738196
Rum Stars camp,,,camp_site,,,,,,,29.5044134,35.4693568
,,,camp_site,,,,,,,29.5117035,35.4748964
Mzied's Camp,,,camp_site,,,,,,,29.5156249,35.4723001
,,,camp_site,,,,,,,29.5271747,35.4810319
Lawrence's House,Lawrence House,,attraction,,,,,,,29.5286207,35.4593101
Bedouin Roads,,,camp_site,,,,,,,29.518884,35.4632476
Beyond Wadi Rum Camp,,,hotel,,,,,,,29.5196249,35.4422075
Little Bridge,,,attraction,,,,,,,29.5204057,35.4430164
,,,camp_site,,,,,,,29.541106,35.4317578
,,,camp_site,,,,,,,29.540346,35.4341411
Wadi Rum Bedouin Camp,,,camp_site,,,,,,,29.5396354,35.4343843
Wadi Rum Bedouin Camp,,,camp_site,,,,,,,29.5396354,35.4343843
,,,camp_site,,,,,,,29.5384751,35.436981
,,,camp_site,,,,,,,29.5373389,35.4373176
,Oriental camp,,camp_site,,,,,,,29.5377605,35.4039783
Siq Trail,Siq Trail,,attraction,,,,,,,29.4936227,35.4700933
Local Camp,,,camp_site,,,,,,,29.4979721,35.4594016
,,,camp_site,,,,,,,29.4979828,35.452037
Omar Bedouin camp,,,camp_site,,,,,,wadirum,29.4973623,35.4125207
Rainbow Camp,,,camp_site,,,,,,,29.4942042,35.3965546
Rainbow,,,camp_site,,,,,,,29.4938821,35.3964035
,,,camp_site,,,,,,,29.4948787,35.3935153
Desert Moon Camp,,,camp_site,,,,,,,29.4990416,35.3983015
,,,camp_site,,,,,,,29.5060414,35.4125743
,,,camp_site,,,,,,,29.5038125,35.4010644
Dana Tower,,,viewpoint,,,tower,,,,30.6972961,35.5798197
,,,viewpoint,,,,,,,30.6204036,35.6268919
منزل عبد الله طالب السويطي,,,hostel,,,,,,,31.9972897,35.9159043
,,,hotel,,,,,,,31.9899354,35.8714753
سميح,Samih,,artwork,,,,,,,32.0048323,35.8854113
فندق لانكستر شقق فندقية ضاحية الرشيد عمان اردن,,,attraction,,,,,,,32.0054073,35.8792195
شقق الفيصل الفندقية,,,motel,,,,,,,31.9872751,35.8967484
The South Tetraphylon,,,information,,,,,,,32.2792227,35.8915789
The North Theatre,,,information,,,,,,,32.2822563,35.8925472
منزل محمد سنجلاوي (أبو أسامه),,منزل محمد سنجلاوي (أبو أسامه),hostel,,,,,,,32.5469978,35.9832025
,,,picnic_site,,,,,,,30.3171733,36.1738453
Malakot of Wadi Rum,,,hotel,,,,,,,29.8297808,35.3840952
temporär,,,camp_site,,,,,,,30.0898045,35.3700272
,Room17 Youth Hostel,,hostel,,,,,,,29.554038,34.9996195
,Bird hide,,wilderness_hut,,,,,,,29.5688193,34.9871699
Hospitality Palace Hotel,,,hotel,,,,,,,29.5255718,35.0022339
,,,camp_site,,,,,,,30.2772371,35.4123151
,,,hotel,,,,,,,30.3142506,35.4755235
,Petra House for Hospitality,,hotel,,,,,,,30.3168044,35.4762446
Asad apt.,,,hotel,,,,,,,30.3168002,35.4776681
,AQTC,,camp_site,,,,,,,29.7967632,35.2696189
Alena Hotel,,,hotel,,,,,,,29.5246825,35.0074436
Taj Hotel,,,hotel,,,,,,,29.5251117,35.006579
,Hotel Prestige,,hotel,,,,,,,29.5282742,35.0062517
Aquamarina 3,,,hotel,,,,,,,29.5270055,35.0100641
BARAKA AL AQABA HOTEL SUITES,,,hotel,,,,36,,العقبة,29.524301,35.0088121
,,,camp_site,,,,,,,29.5526073,35.4499989
,Al Hasany Sand dunes,,attraction,,,,,,,29.5484199,35.448852
,big dune,,attraction,,,,,,,29.5535407,35.4440717
Michelle camp,,,camp_site,,,,,,,29.5555273,35.4445546
Wadi Rum Night Luxury Camp,,,camp_site,,,,,,,29.5608036,35.4514266
Memories Aicha Luxury Camp,,,camp_site,,,,,,,29.546697,35.435211
,,,camp_site,,,,,,,29.5443606,35.430772
,,,viewpoint,,,,,,,29.5439747,35.4276219
,,,camp_site,,,,,,,29.5543864,35.4060415
Shakria Bedouin Life Camp,,,camp_site,,,,,,,29.6582342,35.4463472
مخيم بيت علي وادي رم (m$h),,,camp_site,,,,,,,29.6864948,35.427363
Wadi Rum Sand Storm Camp,,,camp_site,,,,,,,29.5514473,35.4564438
Bedouin Yoga Camp Wadi Rum,,,camp_site,,,,,,,29.563453,35.462395
Wadi Rum Green Desert,,,camp_site,,,,,,,29.583159,35.4964238
Thamudic & Kufic Rock Art,,,artwork,,,,,,,29.5975115,35.4559491
Salman Zwaedh camp,,,camp_site,,,,,,,29.5977006,35.4966001
Ancient inscriptions,,,attraction,,,,,,,29.5981198,35.4966813
,,,camp_site,,,,,,,29.6032563,35.4992373
Alamelh Camp,,,camp_site,,,,,,,29.6147167,35.4824019
الصخرة المنحوتة وادي وم (m&h),,,viewpoint,,,,,,,29.7089784,35.4527822
Mushroom rock,,,attraction,,,,,,,29.7088108,35.4527848
cinema decorations,,,attraction,,,,,,,29.7271677,35.4729167
rock arch,,,attraction,,,,,,,29.8104195,35.4559887
,,,picnic_site,,,,,,,29.785916,35.755424
,Rahayed Desert Camp,,hotel,,,,,,,29.6425682,35.5123844
Sand Rose Camp (Hillawi Camp),,,camp_site,,,,,,,29.6389896,35.5048829
,,,viewpoint,,,,,,,32.3814731,35.7640614
,Barqash Hostel,,guest_house,,,,,,,32.4137919,35.7428617
Al-Joud Hotel,,,hotel,,,,,,,32.5400274,35.8495625
home amman,,,guest_house,,,,,,,31.9441577,35.9614742
المحافير,,,attraction,,,,,,,32.313319,35.8415792
الخانوق,,,viewpoint,,,,,,,32.3165118,35.835229
ظهر المدينة,,,viewpoint,,,,,,,32.3219549,35.8262342
Burnt Palace,,,museum,,,,,,,31.7167064,35.7948629
Amer 2,,,hotel,,,,,,,29.5288329,35.0036032
Amer Hotel 2,,,hotel,,,,,,,29.5288415,35.003617
Jordan echo tours,Jordan echo tours,Jordan echo tours,information,,,,,,,29.5306333,35.0018309
,Petra Sky Hotel,,hotel,,,,,,,30.3191659,35.4802873
Pq,,,hostel,,,,,,,30.3185519,35.4796775
Mineshaft,,,attraction,,,,,,,30.6395736,35.4905312
,,,viewpoint,,,,,,,30.5649015,35.5295666
,Wadi Al-Nakheel,,attraction,,,,,,,30.6007128,35.54732
,Sunset point,,viewpoint,,,,,,,30.628133,35.5032535
,Dead Sea & Dana viewpoint,,viewpoint,,,,,,,30.681711,35.5812315
Rummana Camp,,,camp_site,,,,,,,30.6871227,35.5732921
Dana nature reserve visitor's center,Dana Visitor's Center,,information,,,,,,,30.6974663,35.5798729
الوحيدات,Wohedat,,camp_site,,,,,,,30.4313188,35.4559751
Rock carving,,,attraction,,,,,,,30.322003,35.4550561
Rock-carved shrine,,,attraction,,,,,,,30.3230981,35.4571429
Elephant or Fish in Siq canyon,,,attraction,,,,,,,30.3232094,35.4566675
250kW Photovoltaic Power System,,,information,,,,,,,30.3242754,35.4675351
The Petra Park Map,,,information,,,,,,,30.3244588,35.4676722
,Edom Hotel,,hotel,,,,,,,30.325722,35.4703462
Petra Bods Hostel,,,hostel,,,,,,,30.3252721,35.4724291
Candles  hotel,,,hotel,,,,,,,30.3264258,35.471605
,Petra Cabin Hostel&Restaurant,,hostel,,,,,,,30.3266737,35.4703953
360 hostel,,,hostel,,,,,,,30.3267066,35.4703895
Carmine Tomb,,,attraction,,,,,,,30.3314427,35.4523547
,,,viewpoint,,,,,,,30.3226302,35.4469246
,Mount Dana Hotel,,guest_house,,,,,,,30.6709352,35.6186778
dana view point,,,viewpoint,,,,,,,30.6760347,35.6088194
,Carob Hostel,,hostel,,,,,,,31.9587736,35.930267
Islamic Museum,,,museum,,,,,,,31.9608573,35.913501
فندق الفراشة,,,hotel,,,,,,,32.0285906,35.8650865
,END OF ZARA CLIFF TRAIL,,viewpoint,,,,,,,31.6258562,35.5851235
,,,hostel,,,,,,,31.8704354,36.0080379
صخر هديرس,,,guest_house,,,,,,,32.1429849,35.6164518
Roof viewpoint,,,viewpoint,,,,,,,29.5301467,35.0032675
,,,information,,,,,,,29.5293424,35.0028466
Al-Safa Tourist Hotel,,,hotel,,,,,,,29.5296477,35.004388
,Amir Palace hotel,,hotel,,,,,,,29.5302637,35.0065478
شقق الياسمين المفروشه,,شقق الياسمين المفروشه,hotel,,,,,,,29.5292125,35.0070814
,,,viewpoint,,,,,,,30.2729189,35.4492197
,,,information,,,,,,,30.3198716,35.4475041
,,,information,,,,,,,30.3193144,35.4473566
,,,viewpoint,,,,,,,30.3188224,35.4465997
,,,viewpoint,,,,,,,30.3180504,35.4582089
Petra view,,,viewpoint,,,,,,,30.3147794,35.4670756
#❤PETRA,,,artwork,,,,,,,30.3166129,35.469697
Oscar Hotel,,,hotel,,,,,,,30.3193371,35.472369
,Overview to Rift valley,,viewpoint,,,,,,,30.5161226,35.5084752
,Al Juhayr panorama view,,viewpoint,,,,,,,30.547362,35.520579
7 Caves house,,,hotel,,,,,,,30.5289358,35.5648239
The smallest Hotel in the World,,,guest_house,,,,,,,30.5291784,35.5649979
Welcome To Petra,,,information,,,,,,,30.3250586,35.4685845
I❤PETRA,,,artwork,,,,,,,30.3249932,35.4685696
The Petra Park Map,,,information,,,,,,,30.3244668,35.4677403
,,,information,,,,,,,30.3237383,35.4675494
Bab el-Siq,,,information,,,,,,,30.3217352,35.4633455
Petra Archeological Park,,,information,,,,,,,30.3218257,35.4612315
Al-Madras,,,attraction,,,,,,,30.32034,35.4620523
Bab al-Siq Triclinium,Bab al-Siq Triclinium - Obelisk Tomb,,attraction,,,,,,,30.3212234,35.4632816
Nomads Hostel,,,hostel,,,,,,,30.321748,35.4731288
Esperanza,,,hotel,,,,4,10,,30.3283907,35.4703447
,my home,,apartment,,,,,,,30.343515,35.4587334
Aqueduct Tunnel,,,attraction,,,,,,,30.3340273,35.4634739
Al-Wu'eira Fort,,,attraction,,,,,,,30.331172,35.466454
,Petra Mars Camp,,camp_site,,,,,,,30.3700449,35.4615468
,Painted House,,attraction,,,,,,,30.3740065,35.4482735
,Triclinia,,attraction,,,,,,,30.3742003,35.4485834
little petra heritage village,,,hotel,,,,,,,30.3782262,35.4689882
,,,viewpoint,,,,,,,30.4457637,35.4048807
,,,viewpoint,,,,,,,30.6726471,35.6096693
Dana Panorama Hotel,,,hotel,,,,10,23,,30.672533,35.6110687
Dana Hotel,,,hotel,,,,,,,30.675145,35.610003
,Dana Reserve Viewpoint,,viewpoint,,,,,,,30.6870755,35.621165
Wadi Dana Eco-Camp,,,guest_house,,,,,,,30.6841314,35.6128294
,The White Domes (?),,viewpoint,,,,,,,30.6832217,35.5954635
,,,hotel,,,,,,,31.9607808,35.8692749
Square study lounge,,,artwork,,,,,,,31.9577511,35.8594308
مالك,,,apartment,,,,,,,31.7148656,35.7912862
بغداد غران هوتيل,Baghdad Grand Hotel,بغداد غران هوتيل,hotel,,,,,,,31.9517651,35.9327749
Concord Hotel,,فندق كونكورد,hotel,,,,,,,31.9526729,35.9381755
Bedouin Meditation Camp,,,camp_site,,,,,,,29.4834988,35.3929743
,Arjana Rotana - Amman,,hotel,,,,,,,31.9648636,35.9040935
بوليفار روتانا,,بوليفار روتانا,hotel,,,,,,,31.9646693,35.9068299
نادي ضباط الشمال,,,hotel,,,,,,,32.5517878,35.8641042
اسكان بدر,,,viewpoint,,,,,,,32.4381089,35.9454787
المقبرة الغربية,,,artwork,,,,,,,32.3142979,35.8315915
المقبرة العمرية,,,artwork,,,,,,,32.3152188,35.8375478
Bedouin Stylelife Camp,,,camp_site,,,,,,,29.6264572,35.4837309
سال,,,camp_site,,,,,,,32.5707682,35.9107978
الطرزي للاسكان 2,,,motel,,,,,,,32.5638313,35.8789095
فندق راديسون بلو عمان,,,hotel,,,,,,,31.9593473,35.8623739
حديقة الأمير هاشم للطيور,Prince Hashem Bird Garden,حديقة الأمير هاشم للطيور,zoo,,,,,,,31.9707711,35.8928339
Petra Nights Hotel,,,hotel,,,,,,,30.3230808,35.486458
مخيم وادي رم,,,camp_site,,,,,,,29.6294298,35.4825255
الشجرة موقع قديم,,,attraction,,,,,,,32.3640519,36.4092749
البرغل رسم قديم,,,attraction,,,,,,,32.4275589,36.268815
الزيتات رسم قديم,,,attraction,,,,,,,32.3711081,36.240944
العيادات الخارجية سابقا,,,apartment,,,,,,,32.5237782,35.853495
مقطع رجلين عبيد رسم قديم,,,attraction,,,,,,,32.4389056,36.2885942
Captain's Hotel,,,hotel,,,,,,,29.5311526,35.0024414
מצפה אבנר אלתר,,,viewpoint,,,,,,,32.6529617,35.5878355
فندق أحلى طلة,Ahla Talla Hotel,فندق أحلى طلة,hotel,,,,,,العقبة,29.5230255,35.002832
,,,hotel,,,,,,,31.9966849,35.8517447
ajnadeen,,,hotel,,,,,,,32.5321889,35.8544329
,Cabin Hostel,,hostel,,,,,,,30.326749,35.4703936
المحجر,,,wilderness_hut,,,,,,,32.798868,38.562902
Feynan Eco Lodge,,,hotel,,,,,,,30.6395644,35.5092874
,,,information,,,,,,,30.3300558,35.4424176
,,,information,,,,,,,30.3289621,35.4451735
,,,hostel,,,,,,,30.1963145,35.7259439
,,,information,,,,,,,30.3301426,35.4415669
,,,information,,,,,,,30.3301872,35.4422003
,,,information,,,,,,,30.3302475,35.4425395
,,,information,,,,,,,30.3303639,35.4427853
Afnan,,,hotel,,,,,,العقبة,29.5232121,35.0031676
Dead Sea Access - Free,,Dead Sea Access - Free,attraction,,,,,,,31.6008429,35.5608535
,héritage Inn,,hotel,,,,,,,31.282369,35.7118212
,Bedouin camp,,camp_site,,,,,,,31.2927938,35.6460866
منزل فابريزيا,,منزل فابريزيا,apartment,cafe,,,,,عمان,31.9390189,35.8665781
,,,artwork,,,,,,,31.9846059,35.8275716
,,,artwork,,,,,,,31.9824548,35.8272337
شقتي,,,apartment,,,,,,,31.9917112,35.8397656
Wadi Mujib Tourist Information Center,,,information,,,,,,,31.4676824,35.5715571
,,,viewpoint,,,,,,,31.4581318,35.8483149
,,,hotel,,,,,,,31.1823205,35.7036508
Al-Mujeb Hotel,,,hotel,,,,,,,31.1708864,35.73182
,,,picnic_site,,,,,,,31.0950247,36.730229
,,,picnic_site,,,,,,,31.1041897,36.7763376
7 days,,,hotel,,,,,,,32.5383705,35.851814
صرفا,,,alpine_hut,,,,,,,31.3288266,35.6557484
White House,,,apartment,,,,,,,31.1875334,35.7053763
مكتبة الاستقلال,,مكتبة الاستقلال,attraction,,,,,,,31.957411,35.8663238
Bin Hammad Hot Spring Baths,,حمامات ابن حمّاد,attraction,,,,,,,31.3000442,35.6260388
,,,viewpoint,,,,,,,31.4330955,35.8034032
مزرعة عامر هلسا,Amer Halasa Farm,,apartment,,,,,,,31.3006196,35.7760257
منزل ميخائيل هلسا- الكرك,Michael Halasa Home - Al - Karak,,apartment,,,,,,,31.2899461,35.7990578
فندق أحلى طلة,,فندق أحلى طلة,viewpoint,,,,,,,29.5231605,35.0027857
البرج الازرق للشقق الفندقية - اجنحة فاخرة,,,hotel,,,,,,,31.9196094,35.9225185
Dream Camp,,,camp_site,,,,,,,29.6419739,35.4894627
,,,picnic_site,,,,,,,29.9658295,35.5534352
Seven Wonders Bedouin Camp,,,hostel,,,,,,,30.3682548,35.462328
بالقرب من التلول,,قاع حمزه,attraction,,,,,,,31.7323828,37.1079714
,,,viewpoint,,,,,,,29.969349,35.2684122
Sulaf Luxury Hotel,,فندق سولاف,hotel,,,,,,,31.9875984,35.8669588
,,,picnic_site,,,,,,,29.762718,35.7225394
,,,picnic_site,,,,,,,29.8055418,35.7007273
,,,camp_site,,,,,,,29.5061086,35.4377812
,,,camp_site,,,,,,,29.517199,35.4751679
Jayyah Camping,,,camp_site,,,,,,,30.5265471,35.5631284
Montreal Hotel,,,hotel,,,,,,,30.5263291,35.5650009
Dana Moon Hotel,,,guest_house,,,,,,,30.6748839,35.6104168
,Average viewpoint,,viewpoint,,,,,,,30.6876516,35.5831966
Rock Camp,,,camp_site,,,,,,,30.4118938,35.4519431
,,,information,,,,,,,30.327845,35.4488149
Mughar an-Nasara,,,attraction,,,,,,,30.3355375,35.4542056
المنزل,,,hostel,,,,,,,32.5592533,35.8251573
Hakaia Community Hostel,,,hostel,,,,,,Aqaba,29.5278483,35.0060458
Captain's Camp,,,camp_site,,,,,,,29.6361274,35.5121357
,The City Centre Hostel,,hotel,,,,,,,29.5290162,35.0036511
,,,camp_site,,,,,,,32.5400087,35.8427828
timetable of bus to Jerash,,,information,,,,,,,31.9943499,35.9195977
Birds,,,attraction,,,,,,,30.6853658,35.5740166
Dali House,,,hotel,,,,,,,31.9550842,35.9278401
Soho Midtown Hotel,,,hotel,,,,,,,31.9556807,35.9257113
Gallery Hodroj,,,gallery,,,,,,,31.9564193,35.9242918
Desert Bird Camp,,,camp_site,,,,,,,29.5257449,35.4484981
وكس,Wox,وكس,artwork,,,,,,,31.9402207,35.8843015
,,,guest_house,,,,,,عمان,31.9418299,35.8677925
,,,viewpoint,,,,,,,29.3829913,35.3721118
فندق جراند ستا,crand stay hotel,,hotel,,,,,,,31.9848742,35.8690623
View on Wadi Sabet,,مطل وادي صابت,viewpoint,,,,,,,29.3925644,35.3789071
وادي رم,Wadi Rum,وادي رم,attraction,,,,,,,29.5084443,35.3362154
Signia by Hilton Amman,,,hotel,,,,272,,Amman,31.9684555,35.8973019
Lawrence's Spring,,ابو عيينة,attraction,,,,,,,29.5597872,35.4101902
Al-Naher Al-Khaled Hotel,,,hotel,,,,,,,29.5255111,35.004626
,,,camp_site,,,,,,,29.6337365,35.5009727
House of Lawrenze,,,attraction,,,,,,,29.5283318,35.4592858
,,,apartment,,,,,,العقبة,29.5496408,35.0090166
Can't walk to the border from this road,,,information,,,,,,,29.5657285,34.9993827
Pella,Pella Ruins Visitor Center Entrance,,attraction,,,,,,,32.4497133,35.6106156
מעבר גבול - יצחק רבין,,,attraction,,,,,,,29.5751131,34.9781413
The Petra Park Map,,,information,,,,,,,30.3244951,35.4679776
,,,viewpoint,,,,,,,30.3819735,35.4206167
Jordan River Border Crossing,Jordan River Border Crossing,,attraction,,,,,,,32.4965261,35.5746966
,,,viewpoint,,,,,,,30.9049954,35.6895783
,Sun Set Hotel,,hotel,,,,,,,30.3252245,35.4718172
Jeep drop off point for hiking to Petra back door.,,,attraction,,,,,,,30.3480132,35.4373554
Jeep boarding point for hike to Petra back door,,,attraction,,,,,,,30.3752076,35.4519142
,,,viewpoint,,,,,,,31.4560739,35.5697793
,,,yes,,gift,,,,,30.3201792,35.448537
,,,viewpoint,,,,,,,30.6830308,35.579954
Ajloun Hotel,,,hotel,,,,,,,32.3296119,35.7344485
,,,information,,,,,,,31.7494127,35.5882687
,The Duke's Diwan,,museum,,,,,,,31.9518969,35.9334299
,,,viewpoint,,,,,,,30.6743176,35.608198
,Wild Campsite - Ras Al-Fayd,,camp_site,,,,,,,30.5080376,35.4915667
The Oval Placa,,,information,,,,,,,32.2771007,35.8909191
The Cardo,,,information,,,,,,,32.2778717,35.8909037
,,,chalet,,,,,,,30.1130611,35.1545087
The Sanctuary of Artemis,,,information,,,,,,,32.28172,35.8917788
Al Amer Hostel,,,hostel,,,,,,,29.5254724,35.0089921
The South Decumanus,,,information,,,,,,,32.2793939,35.89153
The North Gate and the North end of the Cardo,,,information,,,,,,,32.282701,35.8935789
,Viewpoint on Petra,,viewpoint,,,,,,,30.3432905,35.4631604
Silk Road Hotel,,,hotel,,,,,,,30.3253632,35.4711707
Mussa Spring Hotel,Mussa Spring Hotel,,attraction,,,,,,Petra - Jordan,30.3243903,35.4976562
Turkmaniyya Tomb,,,attraction,,,,,,,30.3370273,35.4464948
Amman: a view towards the north,,,information,,,,,,,31.9565926,35.9336507
Gardenia Hotel,,,hotel,,,,,,,31.980354,35.8933286
Burdah Rock Bridge,,,viewpoint,,,,,,,29.4735065,35.5000636
,,,motel,,,,,,,31.8716603,35.890171
مضافة ال العمري (بني موسى),,,guest_house,,,,,,,32.4863812,35.7923378
سليمان الحريري,,,hostel,,,,,,,32.3004837,36.3182098
,,,information,,,,,,,31.8374428,35.5459393
Bibliothèque,,,apartment,library,,,,,,31.981208,35.8747535
منزل المهرب,,,camp_site,,,,,,,32.6704009,38.1121433
سد ورنس,,,picnic_site,,,,,,,32.6552518,38.1576541
Bedouin Directions Camp,,,camp_site,,,,,,,29.4649678,35.377062
,,,viewpoint,,,,,,,31.1809131,35.7020983
,,,viewpoint,,,,,,,31.1800261,35.7015907
شرحبيل بن حسنة,Jordan Eco Park,شرحبيل بن حسنة,camp_site,,,,,,,32.5266357,35.6182044
فندق شام,Amman Paradaise Hotel,فندق شام,hotel,,,,,,,31.9754111,35.8946921
,Wadi Rum Legend Camp,,camp_site,,,,,,,29.6573979,35.4755798
Hayat Zaman Hotel & Resort,,,hotel,,,,,,Taybeh,30.2548309,35.4598663
اللحمة,,,viewpoint,,,,,,,32.6577073,35.6820289
The Loft Hotel By Bratus,,,hotel,,,,110,,Aqaba,29.5319199,35.0028051
إربد بلازا,Irbid Plaza,إربد بلازا,hotel,,,,,,,32.5319918,35.8519312
Al Sultana Luxury Camp,,,camp_site,,,,,,,29.6349052,35.5088858
فندق رافي,,فندق رافي,hotel,,,,,,,31.9505987,35.9368279
Great lookout of the big waterfall,,,viewpoint,,,,,,,31.6047478,35.6037198
Oxygen Buildings,,,apartment,,,,,,,31.9123382,35.8833111
Statue of Saladin,,,artwork,,,,,,,31.1852519,35.7048548
,Church underground tunnels,,attraction,,,,,,,31.7148581,35.7936369
منزل عمر عبد الحميد غانم,,,alpine_hut,,,,,,,32.0228449,35.8923027
مقطع رجلين عبيد  رسم قديم,,,attraction,,,,,,,32.4378471,36.2928877
منزل عدنان الجديد,,,caravan_site,,car_parts,,,,,30.5410467,37.2500486
الفكوك,,,picnic_site,,car_parts,,,,,30.5480932,37.2503145
خربة ظالو,,,attraction,,,,,,,31.9782049,37.4420389
Karam House Inn,,,hotel,,,,15,,Aqaba,29.5289597,35.0063195
Col Laroche house,Col Laroche house,,apartment,,,,,,,31.951678,35.864392
Rama Hotel,Rama Hotel,,hotel,,,,,,,31.9627173,35.8571165
,AAQ Home - Amman,,apartment,,,,,,,32.0103761,35.9353914
Geneva Hotel,Geneva Hotel,,hotel,,,,,,,31.963401,35.8568498
,AAA Q Home - Amman,,apartment,,,,,,,32.01041,35.9353846
Feel Burger,Feel Burger,,artwork,,,,,,,31.9573241,35.8633202
Liwan Hotel,Liwan Hotel,,hotel,,,,,,,31.9558818,35.8653427
Ruba,Ruba,Ruba,guest_house,,,,,,,31.9871553,35.9348314
بنية الخضيري,,,attraction,,,,,,,32.4000829,36.3389574
برج العرب,Arab Tower,برج العرب,hotel,,,,,,Amman,31.9513414,35.9361196
Heritage House,Heritage House,,hotel,,,,,,,31.949759,35.931086
Qaimaris,Qaimaris,,guest_house,,,,,,,31.9040391,35.8661371
Sun Rise Hotel,Sun Rise Hotel,,hotel,,,,,,,31.9601739,35.9181977
Ammonite Watchtower,Ammonite Watchtower,,attraction,,,,,,,31.9577028,35.9045673
Rayshan Hotel,Rayshan Hotel,,hotel,,,,,,,31.9821164,35.8905315
N,N,Najwan,apartment,,,,,,,31.995747,35.888786
الورده البيضاء,White Rose Hotel,الورده البيضاء,hotel,,,,,,,31.8938854,35.8411797
Dr. Qays Omari,Dr. Qays Omari,,attraction,,,,,,,32.0572428,35.8891533
Lora home,Lora home,,attraction,,,,,,,32.0331585,35.8704447
Misk Hotel,,,hotel,,,,,,Shmeisani,31.9801808,35.8935127
,Jabal um Hash,,viewpoint,,,,,,,29.3529797,35.4471648
Happy Bedouin House,,,guest_house,,,,,,,30.3446574,35.456727
Arabian Nights Camp,,,camp_site,,,,,,,29.5035299,35.4368918
محمود الشيخ سالم,,محمود الشيخ سالم,hostel,,,,,,عمان,31.9653359,35.8624205
Wadi Rum Desert Base Camp,,,camp_site,,,,,,,29.5488777,35.4635184
view on Jordan-river,,,viewpoint,,,,,,,31.8357051,35.5495179
,Sea Level Point,,attraction,,,,,,,31.8420663,35.6966728
St. Jador Rest House,,,hostel,,,,,,,31.8773872,36.8232134
Space Village Camp,,,camp_site,,,,,,,29.6465303,35.4791185
,,,viewpoint,,,,,,,31.2522304,35.5813761
Jad Al Younis house,,,guest_house,,,,,,,31.8779493,36.8241046
عمارة رقم 13,,,apartment,,,,,,,31.9537895,35.8747552
فندق فرح,Farah Hotel,فندق فرح,hotel,,,,,,,31.9529142,35.9329892
Down Town Hotel Apartments,,,hotel,,,,,,,31.9632357,35.9061987
RSCN Ajloun Reserve Information Office and reception,,,information,,,,,,,32.3802175,35.7635603
Visitor Center,,,information,,,,,,,31.8462666,35.5773872
RSCN Shaumari Wildlife Reserve,,,information,,,,,,,31.7521853,36.7561109
Dana Visitor Center,,,information,,,,,,,30.6743373,35.6082666
Jabal Amman Hotel,Jabal Amman Hotel,,hotel,,,,0,,Amman,31.9495984,35.9310623
,,,viewpoint,,,,,,,31.949321,35.9275836
King Hussein Bin Talal Convention Center,,,hotel,,,,,,,31.7213016,35.5893474
Marriott Hotel,,,hotel,,,,,,,31.7187633,35.5866568
Nabad,,,gallery,,,,,,,31.9513923,35.9299919
Merryland Hotel,New MerryLand Hotel,,hotel,,,,,,,31.9592656,35.9214877
Extra Traveller Hostel,,,hostel,,,,,,,29.5344092,35.0002517
Wild Camp,,,camp_site,,,,,,,31.051441,35.6586834
Wild Camp,,,camp_site,,,,,,,31.0078761,35.6635351
Wild Camp,,,camp_site,,,,,,,32.4465149,35.6988357
Final Camp,,,camp_site,,,,,,,29.4665158,35.111754
Wild Camp,,,camp_site,,,,,,,29.7374105,35.4513341
Carved Boulder Wild Camp,,,camp_site,,,,,,,30.1822443,35.2918391
Wild Camp,,,camp_site,,,,,,,30.1006397,35.2311321
Wild Camp,,,camp_site,,,,,,,30.0257077,35.230111
Wild Camp,,,camp_site,,,,,,,30.0140279,35.2371523
Wild Camp,,,camp_site,,,,,,,29.9773244,35.3117374
Wild Camp,,,camp_site,,,,,,,29.8669287,35.4042682
Wild Camp,,,camp_site,,,,,,,29.8096604,35.4538846
Wild Camp,,,camp_site,,,,,,,29.4253013,35.3257602
Wild Camp,,,camp_site,,,,,,,31.4554592,35.7284399
Wild Camp,,,camp_site,,,,,,,30.5403174,35.4276368
Wild Camp,,,camp_site,,,,,,,32.2308106,35.7771237
Wild Camp,,,camp_site,,,,,,,32.1824558,35.7976611
Wild Camp,,,camp_site,,,,,,,31.6865989,35.6473974
Wild Camp,,,camp_site,,,,,,,31.5987714,35.6349956
Wild Camp,,,camp_site,,,,,,,31.5076803,35.6955286
Wild Camp,,,camp_site,,,,,,,30.479804,35.4653258
Wild Camp,,,camp_site,,,,,,,30.4269637,35.4542809
Wild Camp,,,camp_site,,,,,,,30.3765376,35.4292802
Wild Camp,,,camp_site,,,,,,,32.2889636,35.7481806
Wild Camp,,,camp_site,,,,,,,32.2446359,35.7629803
Wild Camp,,,camp_site,,,,,,,31.9906461,35.7390424
Wild Camp,,,camp_site,,,,,,,32.0017221,35.7460444
مزرعة جوهرة السلط,,,hostel,,,,,,,32.1151575,35.7975787
,,,information,,,,,,,31.9647141,35.9054948
The Boulevard's Corner,,,gallery,,,,,,,31.9649351,35.9036474
Huge Boulder Wild Camp,,,camp_site,,,,,,,30.0508731,35.2318968
community art project,,,artwork,,,,,,,31.8498843,36.8195374
محل اميرة,,,attraction,,,,,,,31.9160406,35.8900561
Start of wadi al hasa,,,picnic_site,,,,,,,30.9889171,35.6569912
The Hippodrome,,,information,,,,,,,32.2729753,35.8910998
محمود سعادة,,,apartment,,,,,,,32.0745778,35.8596508
اسماعيل سعادة,,,apartment,,,,,,,32.0747866,35.8598372
وطن,Watan Studio,,gallery,,,,,,,31.9468553,35.929953
,,,viewpoint,,,,,,,32.6633006,35.6504553
متحف الكرك,Al-Karak Museum,متحف الكرك,museum,,,,,,,31.1821609,35.7017229
متحف القلعة,,متحف القلعة,museum,,,,,,,31.1809629,35.7011482
Magical Desert Dunes,,,camp_site,,,,,,,29.6366633,35.4940404
house,,,wilderness_hut,,,,,,,32.0468191,35.8574743
Dana Nabil Eco Camp House,,,hotel,,,,,,,30.701205,35.5953046
Kharaz,,,viewpoint,,,,,,,29.8086111,35.4541667
,Twins Downtown Hotel,,hotel,,,,,,,31.9523341,35.9313622
,"OlD house, castle street 61110 Kerak",,hotel,,,,,,,31.1811964,35.7031667
rock arch,,,attraction,,,,,,,29.8092291,35.454775
,,,viewpoint,,,,,,,30.5730315,36.4784068
,Petra Castle Hotel,,hotel,,,,,,,30.3243626,35.4969822
,,,viewpoint,,,,,,,30.346651,35.4351315
منزل خليل القدومي وصهره فراس جانبه,,,attraction,,,,,,,31.966213,35.857795
,Qastal Amman,,hotel,,,,,,,31.7350923,35.9443241
Museum Jerusalem,,,gallery,,,,,,,31.9579821,35.9154519
strand hotel,,,hotel,,,,,,,31.9558265,35.8701277
,,,apartment,,,,,,,32.0355098,35.7299299
,,,attraction,,,,,,,30.3289384,35.4415004
جبل النبي هارون,Jabal Harun,,attraction,,,,,,,30.316791,35.406715
,Jarash Gate Suite,,apartment,,,,,,,32.2903569,35.8826677
,Desert Moon,,hostel,,,,,,,30.323516,35.4802492
,Normas Hotel,,hotel,,,,,,,31.9519565,35.9316491
,فحص,,apartment,,,,,,,31.9276199,35.8335977
Hotel Philosophy,,,hotel,,,,,,,31.9520202,35.9288654
Rock Bridge,,,attraction,,,,,,,29.4662743,35.3670716
Wadi Mujib Chalets,,,hotel,,,,,,,31.4702538,35.568775
مخيم الحياة البرية,Wild life camp,,camp_site,,,,,,,29.7017975,35.5492848
Arch Tower,,,viewpoint,,,,,,,29.5747222,35.5033333
,Dana Stars Hotel,,hotel,,,,,,,30.6756042,35.6097928
,فحص,,attraction,,,,,,,31.9476565,35.8493438
,Hassan Zawaidah Wadi Rum camp,,camp_site,,,,,,,29.6603226,35.4871579
Rum Kingdom Camp,,,camp_site,,,,,,,29.6543893,35.475839
طريق الهوبيت,Hobbit’s trial,,camp_site,,,,,,,30.6759037,35.6108682
,New Park,,hotel,,,,,,,31.9560647,35.9314141
marhaba furnished apartment,,,motel,,,,2,,عمان,32.0248157,35.8744714
מצפור נהריים,Naharayim viewpoint,,viewpoint,,,,,,,32.6467902,35.5728429
,Belltower View,,viewpoint,,,,,,,31.714803,35.7936279
,,,viewpoint,,,,,,,30.3198253,35.4526668
High Place Petra View,,,information,,,,,,,30.3206352,35.4525525
School,,,information,,,,,,,29.575576,35.4193874
,FREE PARKING,,attraction,,,,,,,31.1824625,35.7024626
,,,camp_site,,,,,,,29.5093459,35.3858887
,,,camp_site,,,,,,,29.5724446,35.412515
,,,camp_site,,,,,,,30.1025542,35.247718
,,,viewpoint,,,,,,,30.4947392,35.4666949
,,,viewpoint,,,,,,,29.57244,35.4126558
,,,camp_site,,,,,,,30.2155161,35.3352043
,,,camp_site,,,,,,,30.5396186,35.451863
برة السماعين,,,attraction,,,,,,,29.5743448,35.3763613
Barrah Canyon,,,attraction,,,,,,,29.5579957,35.4908995
,JHRC Train Adventure starting point,,attraction,,,,,,,29.6604122,35.4825429
,Luciana Hotel,,hotel,,,,,,,29.5257863,35.0061839
,Al nawatef camp eco,,camp_site,,,,,,,30.6160864,35.6049451
Karak dream,,,motel,,,,,,,31.1827136,35.7034628
متحف السيارات الملكي m&h,,,museum,,,,,,,31.9831565,35.8264687
,,,camp_site,,,,,,,30.5271604,35.4524611
,,,camp_site,,,,,,,30.3746871,35.4385605
house,,,guest_house,,,,,,,32.0043525,35.8811492
,Rahayed Desert Camp,,hotel,,,,,,,29.64334,35.5056211
,,,wilderness_hut,,,,,,,30.7294772,35.8152997
نزل جدار المدينة,Ruin Wall Hotel&Hostel,,hostel,,,,,,,32.285262,35.8922273
Wadi Rum EcoTours Bedouin Camp,,,camp_site,,,,,,,29.5036793,35.4369926
Wadi Rum Visitor Center,,,information,,,,,,,29.639233,35.434445
نزل خروب,Carob Hostel,,hostel,,,,,,,31.9587065,35.9302373
عمارة 95,,,hostel,,,,,,,31.9297447,35.9122741
متحف الفلكلور الأردني,Jordan Folklore Museum,متحف الفلكلور الأردني,museum,,,,,,,31.9517413,35.93894
,Museum of Popular Traditions,,museum,,,,,,,31.9518748,35.939648
jawal hotel,,,hotel,,,,,,,31.9517809,35.9367936
Luxury Mazayen Rum Camp,,,camp_site,,,,,,,29.6326433,35.4979466
Qasr el-Kithara,,,attraction,,,,,,,29.8006936,35.3167283
Blue House Gerasa,,,guest_house,,,,,,,32.2783603,35.8980434
STAY Chalet,,,apartment,,,,,,,31.8287621,35.6812553
Jordan Guest House,,,guest_house,,,,,,,30.3100128,35.4757156
Darna Hostel,,,hostel,,,,3,,,31.9544625,35.9286852
Petra Moon Luxury Hotel,,,hotel,,,,,,,30.3268319,35.4689982
Venus Hotel,,,hotel,,,,,,,30.3266007,35.4690892
Khalid’s Beduin Authentic Camp,,,camp_site,,,,,,,29.5835333,35.4964289
Abu Subah Beduin Camp,,,camp_site,,,,,,,29.9751618,35.3653334
Abu Subah Beduin Camp,,,hotel,,,,,,,29.9752327,35.3653979
,,,guest_house,,,,,,,30.2555425,35.4564196
Golden Rose Hotel,,,hotel,,,,,,,29.5278927,35.005595
,,,caravan_site,,,,,,,30.2361417,37.0508408
Sextius Florentinus Tomb,Sextius Florentinus Tomb,,attraction,,,,,,,30.3304155,35.450769
Silk Tomb,Silk Tomb,,attraction,,,,,,,30.3280388,35.4492607
Urn Tomb,Urn Tomb,,attraction,,,,,,,30.327551,35.449262
قصر عمرة‎,Quseir Amra,قصر عمرة,attraction,,,,,,,31.8018159,36.5875408
برية وادي رم,Wild Wadi Rum,,camp_site,,,,,,,29.5129412,35.4772878
الطبيقى,Al-Tbeqa,,viewpoint,,,,,,,29.5118007,35.4772044
La Casa Hotel,,,hotel,,,,,,,31.9925324,35.863659
شقق مفروشة ام محمد,Aparyments Um Mohmed for rent,,apartment,,,,,,,31.950134,35.9058862
,Rum Hotels,,hotel,,,,,,,31.9579504,35.8614748
Jewheret Alswefia Hotel Suites,,,hotel,,,,,,,31.9581879,35.8613466
Hilton Amman,,,hotel,,,,173,,Amman,31.9666803,35.899086
,,,caravan_site,,,,,,,30.236185,37.0508992
جَبَل نِيبُو,Mount Nebo,جَبَل نِيبُو,viewpoint,,,,,,,31.7681678,35.725269
The Brazen Serpent Monument,,,attraction,,,,,,,31.7683053,35.7253544
Corinthian Tomb,Corinthian Tomb,,attraction,,,,,,,30.3285277,35.4495453
Palace Tomb,Palace Tomb,,attraction,,,,,,,30.3291065,35.4499137
,Barqash House - best homestay!,,guest_house,,,,,,,32.4137959,35.7427936
,Barqash Hostel,,guest_house,,,,,,,32.4137931,35.7428516
,,,apartment,,,,,,,31.9749787,35.882951
,Treasury from above,,viewpoint,,,,,,,30.3221496,35.4522024
,Faraseen Apartments,,apartment,,,,,,,31.734991,35.9441969
Wadi Rum Tours ( Saleh's Safari Camp),,,camp_site,,,,,,,29.5159607,35.4119831
Homestay Rasoun,,,hostel,,,,,,,32.4017084,35.7593741
נהריים בגשר,,,attraction,,,,,,,32.6230967,35.5634372
Atremis restaurant,,,attraction,fast_food,,,,,,32.2665593,35.8867455
מגדל תצפית,,,viewpoint,,,tower,,,,30.6682413,35.2645074
Beit Al Fannan,,,hotel,,,,,,,32.4504433,35.6183529
Beit Idis Homestay,,,hostel,,,,,,,32.4404882,35.6818267
my grandfather haous,,,hotel,,,,3,,القادسية,30.677515,35.6097951
Dream House hotel,,,hotel,,,,,,,32.2797257,35.8981271
Camp Husban 1,,,camp_site,,,,,,,31.8336902,35.7718846
Ecolodge,,,hotel,,,,8,,,31.8717395,35.6313209
,,,caravan_site,,,,,,,32.204904,35.7175794
ירמוכית,Yarmikhit,,viewpoint,,,,,,,32.6714941,35.5988854
,Airbnb Aqaba,,guest_house,,,,,,,29.531577,35.0116244
Hobbit houses,,,camp_site,,,,,,,30.6765784,35.6111373
,Rum Jordan Camp,,camp_site,,,,,,,29.7163788,35.5161666
aljamalhotel,,,hotel,,,,34,,amman,32.0043118,35.8708342
دارة الفنون (مؤسّسة خالد الشومان),Darat al Funun (Shoman Foundation),,gallery,,,,,,عمّان,31.9541995,35.9304639
Djinn Blocks,Djinn Blocks,,attraction,,,,,,,30.3221541,35.4642445
Nabatean rock inscriptions,Nabatean Rock Inscriptions,,attraction,,,,,,,29.55899,35.4115285
The Byzantine church,The Byzantine church,,information,,,,,,,31.954473,35.935303
,Temple;Little Petra Siq,,attraction,,,,,,,30.3741588,35.4499308
The South Gate and the City Wall,,,information,,,,,,,32.2763405,35.891017
,,,viewpoint,,,,,,,32.2666579,35.8871038
The Temple of Artemis,,,information,,,,,,,32.2816086,35.891121
,,,artwork,,,,,,,32.0104049,35.8707574
The Umayyad Complex,The Umayyad Complex,,information,,,,,,,31.9553491,35.9344221
The hand of Hercules,The hand of Hercules,,artwork,,,,,,,31.9538501,35.9344232
Site Rules,,,information,,,,,,,31.767666,35.7260587
Dolmen,,,attraction,,,,,,,32.2100695,36.0015458
Dolmen field,,,attraction,,,,,,,32.209649,36.0028927
,,,caravan_site,,,,,,,30.2361536,37.0508463
مشروع النقابة ١,JEA,,apartment,,,,,,,31.8117337,35.9234588
عمي ابو كمال,Abu Kamal,,apartment,,,,,,,32.3014884,35.7388616
,Abu Kamal,,apartment,,,,,,,32.3015262,35.7390755
,"JEA ,Project 1",,apartment,,,,,,,31.8120354,35.92333
AbuFares,,,apartment,,,,,,,32.0007328,35.9489375
The Brazen Serpent Monument,,,information,,,,,,,31.7682697,35.7253671
,Good place for a tent,,camp_site,,,,,,,30.6186309,35.525388
,Good place for a tent,,camp_site,,,,,,,30.6210405,35.5171015
,Good place for a tent,,camp_site,,,,,,,30.6135638,35.5329999
,Airbnb Aqaba II,,guest_house,,,,,,,29.541789,35.0200428
,,,hotel,,,,,,,31.9792259,35.8963223
قصر سبا,,,hotel,,,,,,,31.9794487,35.8980309
,Petra Royal Ranch,,guest_house,,,,,,,30.3699609,35.4675347
مطل نهر اليرموك,,,viewpoint,,,,,,,32.6771622,35.6610603
,,,information,,,,,,,30.3309626,35.4394923
,,,information,,,,,,,30.3345129,35.4390742
مطل بحيرة طبريا,,,viewpoint,,,,,,,32.6612053,35.6783104
Cliff Hotel,,,hotel,,,,,,Amman,31.9520272,35.9319619
شقتنا,,,apartment,,,,,,,31.989401,35.8568836
Petra Palace Hotel,,,hotel,,,,,,,30.3253411,35.4719751
Dana Tower Hotel,,,guest_house,,,,,,,30.6755371,35.6093639
متحف أم قيس,Umm Qais Museum,متحف أم قيس,museum,,,,,,,32.6558405,35.6795493
,Hakaia Hostel,,hostel,,,,,,,29.5280719,35.0063122
Wadi Dahek,,,camp_site,,,,,,,31.5964751,37.1160194
,,,viewpoint,,,,,,,31.5958675,37.1168451
Abu Mustafa House,,,attraction,,,,,,,32.5253247,35.8584967
أنا أحب مادبا,i love Madaba,أنا أحب مادبا,artwork,,,,,,,31.7181917,35.793368
مكتبة ومكتب التذاكر مار جرجس,,مكتبة ومكتب التذاكر مار جرجس,information,,,,,,,31.7175534,35.7940136
,Free Access to Dead Sea,,attraction,,,,,,,31.4556972,35.5669938
,RAWA’AT ALAQABA,,hotel,,,,,,,29.5257174,35.0066699
Seven Wonders Bedouin Camp,,,hotel,,,,,,Wadi Musa,30.368034,35.4619548
Dream Bedouin Life Camp Wadi Rum,,,camp_site,,,,,,,29.6504822,35.4450903
,,,hotel,,,,,,,32.3297287,36.3683831
,,,camp_site,,,,,,,32.2515935,35.7587231
,,,camp_site,,,,,,,29.5198197,35.4423997
,,,camp_site,,,,,,,29.4981072,35.454016
,,,camp_site,,,,,,,29.5360988,35.4380145
,,,camp_site,,,,,,,29.6077907,35.4821974
,,,camp_site,,,,,,,29.6250554,35.5010186
,,,camp_site,,,,,,,29.6282253,35.4878546
,,,camp_site,,,,,,,29.6104197,35.4803641
,,,camp_site,,,,,,,29.6327255,35.4977715
,,,camp_site,,,,,,,29.6527724,35.4867119
,,,camp_site,,,,,,,29.602029,35.4608184
,,,camp_site,,,,,,,29.5302465,35.4430211
,,,camp_site,,,,,,,29.5217247,35.4542337
,,,camp_site,,,,,,,29.5226834,35.4543475
,,,camp_site,,,,,,,29.5086097,35.4105823
,,,camp_site,,,,,,,29.5249917,35.4270109
,,,camp_site,,,,,,,29.4784155,35.3926328
Ibrahim Jawabreh's house,,,guest_house,,,,,,,32.6531468,35.680632
Canary Hotel,,,hotel,,,,,,,31.9572222,35.9187293
Phoenix Hotel,,,hotel,,,,,,,31.7232666,35.7919099
بيت الكرم,Beit alkaram,,guest_house,,,,,,,31.1824218,35.7027741
Magic Bedouin Star,,,camp_site,,,,,,,29.5221811,35.4500908
Khaled's Camp,,,camp_site,,,,,,,29.4753074,35.4081142
,Tourist Information,,information,,,,,,,29.5287138,35.0021954
,,,camp_site,,,,,,,29.5776439,35.4191705
,,,camp_site,,,,,,,29.6335691,35.5048829
,,,camp_site,,,,,,,29.6357387,35.5063221
,,,camp_site,,,,,,,29.6371169,35.5123634
,,,camp_site,,,,,,,29.6389472,35.5124366
,,,camp_site,,,,,,,29.482223,35.382689
,,,camp_site,,,,,,,29.4818555,35.4089197
,,,camp_site,,,,,,,29.4884175,35.4080038
,,,camp_site,,,,,,,29.4382694,35.4460919
,,,viewpoint,,,,,,,30.0468153,35.4479092
Sunset Camp,,,camp_site,,,,,,,29.4910853,35.3925568
Homestay Orjan 2,,,guest_house,,,,,,,32.3994172,35.7392425
Karak Rest House,,,hotel,,,,,,,31.1820649,35.701738
Beit Philodemus Bed & Breakfast,,,guest_house,,,,,,,32.6510205,35.6925872
Homestay Orjan 3,,,guest_house,,,,,,,32.4022102,35.7352517
Homestay Orjan 1,,,guest_house,,,,,,,32.3973203,35.7379064
Homestay Orjan,,,guest_house,,,,,,,32.3970686,35.7319339
B&B Gadara Rent Room,,,guest_house,,,,,,,32.6536463,35.6851845
Jordan Eco Park,,,hostel,,,,,,,32.5259365,35.618245
Eisa Dweekat Guest House,,,guest_house,,,,,,,32.4043304,35.7479172
منزل موسى يوسف مقداد,,,guest_house,,,,5,,عجلون,32.3960257,35.7348027
"Homestay, Eisa Zghoul",,,guest_house,,,,,,,32.2467502,35.7593918
بيت الرحال,Bayt Alrahaal,,guest_house,,,,,,,31.958231,35.9240543
al amer palace hotel,,,hotel,,,,,,,31.9928212,35.8795924
