name,name_en,name_ar,tourism,amenity,shop,man_made,rooms,beds,addr_city,latitude,longitude
My Grandfather's House,My Grandfather's House,بيت جدي,hotel,,,,3,,ضانا,30.6766164,35.6094032
,Rashidiya,,camp_site,,,,,,,29.7327489,35.2820019
Little Petra Bedouin Camp,,,hotel,,,,,,,30.370803,35.4584968
Mussa Spring hotel,,,hotel,,,,,,,30.3250567,35.4974295
,,,camp_site,,,,,,,29.4247567,35.3902599
,,,camp_site,,,,,,,29.4790917,35.3958204
,,,camp_site,,,,,,,29.483235,35.3868094
Aitch Boutique Hotel,,,hotel,,,,,,,31.7229332,35.794309
,Feynan Wild Camp,,camp_site,,,,,,,30.6152821,35.4782157
Petra Boutique Hotel,,,hotel,,,,,,,30.3252687,35.471301
,,,hotel,,,,,,,31.9916381,35.8921432
value place,,,hostel,,,,8,,وادي موسى,30.3282073,35.4704955
,,,camp_site,,,,,,,29.6574357,35.4649473
Nobel Hotel,Nobel Hotel,,guest_house,,,,,,,31.9561877,35.9312012
فندق سدني عمان,Sydney Hotel Amman,فندق سدني عمان,hostel,,,,,,,31.951555,35.928257
Airport Villa Amman,,,apartment,,,,,,,31.7171718,35.9552901
Aljun Forest Reserve Cabins,,,hotel,,,,,,,32.3802512,35.7635842
Wadi al-Malaqa Campsite,,,camp_site,,,,,,,30.589533,35.4596408
,Imagination Luxury Camp,,camp_site,,,,,,,29.6135662,35.4936517
غدير الطير,Ghadeer altair,,camp_site,,,,,,,32.182481,36.371411
Al Nasir's Residence,,,apartment,,,,,,,31.1408139,35.7212318
Petra Harmony,Petra Harmony B&B,,guest_house,,,,,,,30.3145371,35.4756979
Roman's Kingdom,,,apartment,,,,,,,31.7130936,35.7899936
Mosaic City Hotel,,,hotel,,,,,,,31.7210959,35.7926029
Wadi Rum Desert Secret,,,hotel,,,,5,,Aqaba,29.602016,35.487128
Wadi Rum Village Lodge,,,hostel,,,,5,,Wadi Rum Village,29.5717071,35.4228105
Wadi Rum Village Hostel,,,hostel,,,,3,,Wadi Rum Village,29.5719081,35.4228158
كورال بي,Coral Bay,كورال بي,hotel,,,,,,,29.3993423,34.9674652
Camp Makhraba,,,camp_site,,,,,,,32.56932,35.6589103
موفنبيك,Movenpick,موفنبيك,hotel,,,,,,العقبة,29.5324098,34.9995105
Room17 Youth Hostel,,,hostel,,,,12,,aqaba,29.5539975,34.9995254
Cedar Hotel,,,hotel,,,,,,,29.5305594,35.0058197
Oryx Hotel,,,hotel,,,,,,Aqaba,29.5401096,34.9993798
Hakaia home,,,hostel,,,,,,,29.537897,35.0006848
اراضي الشيخ منصور الحراحشة,,,guest_house,,,,,,,30.8339489,36.4517335
نزل ال شرت الحقرا,,,guest_house,,,,20,,عجلون,32.3935824,35.7307879
Jabal Rum Camp,,,camp_site,,,,,,,29.6853607,35.4485015
Lavender Amman Hotel,,,hotel,,,,10,,Amman,31.7478749,35.939734
Sandra hotel,,,hotel,,,,,,,31.9469048,35.9337011
ديوان آل المناصرة,,,guest_house,,,,,,,32.5258082,35.776944
مضافة ال العمري (الرزاقين),,,guest_house,,,,,,,32.4859837,35.7967042
Atoom Lodge,,,apartment,,,,,,,32.2885577,35.8841452
,Petra Bubble Luxotel,,hotel,,,,,,,30.3843199,35.4827558
Hawa Guest house,Hawa Guest house,,guest_house,,,,,,,31.9541363,35.9320799
إستراحة قصر الأزرق,Azraq Rest House,إستراحة قصر الأزرق,hotel,,,,,,,31.8613621,36.8071782
مخيم عشاق الصحراء وادي رم,desert lovers camp,مخيم عشاق الصحراء,camp_site,,,,,,,29.5137982,35.479074
,Wadi Rum Sky,,hostel,,,,,,,29.4818909,35.4110728
عمان,Amman,,hostel,,,,,,Amman,31.9484006,35.9322218
Leen Guest House,,,apartment,,,,,,Wadi Musa,30.315486,35.4709378
,,,apartment,,,,,,,31.256049,35.5221723
Sara Apartment,,,apartment,,,,,,Wadi Musa,30.3156109,35.4704561
Hotel Mena Tyche,,,hotel,,,,,,,31.963027,35.8917618
,Wadi Rum Nature & Tours Camp,,camp_site,,,,,,,29.5008106,35.431439
Wild Camp,,,camp_site,,,,,,,31.8010361,35.7587147
Wild Camp,,,camp_site,,,,,,,30.5129629,35.467856
Seasonal Bedouin Tents,,,camp_site,,,,,,,30.36817,35.4453695
Wild Camp,,,camp_site,,,,,,,30.2160401,35.3624952
حي مگطاع,,,apartment,,,,,,,31.7111539,35.7912609
"The Ritz-Carlton, Amman",,,hotel,,,,,,,31.960971,35.8819305
Hadrian's Arch,,,guest_house,,,,3,,Jerash,32.2819773,35.8866289
Trajan inn,,,hostel,,,,,,,31.4332465,35.7924757
,Zawaideh desert camp,,camp_site,,,,,,,29.6377812,35.5123309
Wadi Al Ghwer Camp,,,camp_site,,,,,,,30.6244666,35.5018192
,Bedouin Whispers Camp,,camp_site,,,,,,,29.4833812,35.415243
,,,camp_site,,,,,,,29.4798903,35.3903292
,Good place for a tent (+water),,camp_site,,,,,,,30.6015389,35.5400838
,Faraseen Apartments,,apartment,,,,,,,31.7351648,35.9445421
,,,camp_site,,,,,,,29.6234947,35.4999101
,Private room,,guest_house,,,,,,,31.3313362,35.6553658
Hotel Hawa Amman,,,hotel,,,,,,,31.9515632,35.9331905
Uptown Apartments,Uptown Apartments,,hotel,,,,,,Amman,31.996382,35.8736722
Cyber City Refugee Camp,,,camp_site,,,,,,,32.4569234,35.9717423
Wild Camp,,,camp_site,,,,,,,32.443718,35.74644
شقة عمان الكاردنز (m&h),,,hostel,,,,,,,31.8402771,36.0512666
,Tetra Tree Hotel,,hotel,,,,,,,30.3189846,35.4823478
Black Iris,,,hotel,,,,,,,31.721646,35.791596
Wild Camp Ayoun Al-Theeb,,,camp_site,,,,,,,31.7191544,35.6722645
Camp Wadi Mgair,,,camp_site,,,,,,,31.0464938,35.6697055
Camp Burbaita,,,camp_site,,,,,,,30.9774683,35.6563909
عمارة الجوزاء. موسى قنيبي,,عمارة الجوزاء. موسى قنيبي,hotel,,,,,,,32.0189389,35.8754179
Dweik Hotel 1,,,hotel,,,,,,,29.5287738,35.0036868
Amira Hotel,,,hotel,,,,,,,29.5289862,35.0036787
hotel,,,hotel,,,,,,,30.6805986,35.6116915
Dana horizon hotel,,,hotel,,,,7,,Dana,30.677854,35.6107789
,,,camp_site,,,,,,,29.5888351,35.4962324
,,,hostel,,,,,,,32.5394188,35.8500334
,,,motel,,,,,,,30.1979653,35.7356957
Celino suites,,,hotel,,,,,,,31.9612264,35.9028679
Husban 2,,,camp_site,,,,,,,31.8004375,35.7581434
Husban 2,,,camp_site,,,,,,,31.8003065,35.7581953
O Beach,,,hotel,,,,,,,31.6833499,35.5749712
الجسر الاردن,,,hotel,,,,,,,31.8907619,35.5770159
Amman Inn Hotel,Amman Inn Hotel,,hotel,post_office,,,,,,31.9572152,35.8710398
St John Hotel & Rabwat Madaba Sky Bar & Restaurant,,,hotel,,,,,,,31.7152699,35.7936849
منزل ابو خليل غراب,Abu Khalil Ghorab,,guest_house,,,,,,,32.1066525,36.2881699
,JOR QRF Camp,,camp_site,,,,,,,32.0983607,36.1232986
الدكتور نجيب,,,apartment,,,,,,,32.0527425,35.904817
home jorden,,,hotel,,,,,,,32.0207424,35.855318
عمان شارع الجمعية,,,motel,,,,,,,32.0208134,35.8548059
الدار,home,,hotel,,,,,,,32.0304736,36.0517224
,Sheba hotel,,hotel,,,,,,,31.9795657,35.8978922
الهدير,,الهدير,hotel,,,,,,,31.979547,35.8948705
الهدير للأجنحة الفندقية,,,hotel,,,,,,,31.979553,35.8951449
,Arabel hotel,,hotel,,,,,,,31.9786846,35.8974161
الجاردنز,,الجاردنز,hotel,,,,,,,31.98256,35.8907772
فندق شامي بلازا,Shami plaza Hotel,,hotel,,,,,,,31.9667151,35.9000909
ضراغمة شقق فندقيه,,,hotel,,,,,,,31.965386,35.8851403
Amman West Hotel,Amman West Hotel,,hotel,,,,,,,31.9578457,35.8998672
موقف الفندق,,موقف الفندق,hotel,,,,,,,31.9647542,35.9064417
Cameo Hotel,Cameo Hotel,,hotel,,,,,,,31.9576136,35.8999798
Artal hotel,,,hotel,,,,,,,31.9756694,35.8430608
Bait Ali Camp,,,hostel,,,,,,,29.6859063,35.428379
Crowne Plaza,,,hotel,,,,,,,31.7068514,35.5839231
Mariam Hotel,,,hotel,,,,,,,31.7242464,35.7950427
Madaba Grand Hotel,,,hotel,,,,,,,31.7247314,35.7952756
Ruman,,,hotel,,,,,,,31.7252294,35.7955217
Moab Land Hotel,,,hotel,,,,,,,31.717714,35.7935538
Pilgrim's House,,,hotel,,,,,,,31.7174944,35.7938689
بيت أبو يزن,Abu Yazan building,,apartment,,,,,,,32.0953556,36.0905711
زيدان ضيافة,,زيدان ضيافة,guest_house,,,,,,,32.0945849,36.1065776
,,,apartment,,,,,,,32.0550279,35.8817607
ريان الحريري,,,apartment,,,,,,,32.060602,35.8902971
سامر انور الحريري,,,apartment,,,,,,,32.0602736,35.8882465
إشارة الدوريات الخارجية,Al Jubihah,,apartment,,,,,,,32.0239135,35.8548671
منزل صالح جرار,,,guest_house,,,,,,,32.0236071,35.8544864
زرقاء,,زرقاء,guest_house,,,,,,,32.0404507,36.0741817
القصر,El Qasr Howard Johnson,القصر,hotel,,,,,,,31.9735338,35.8982324
شقة عمان الكاردنز (m&h),,,hostel,,,,,,,31.9838719,35.8933849
سما باريس,,,hotel,,,,,,,31.9835441,35.8919493
عمرعوده الرشيد,,,guest_house,,,,,,,31.9827252,35.9207841
منزل عمي سليمان الوريكات,,,guest_house,,,,,,,32.0856231,35.8607653
ابو السائد,ابو السائد شقة,ابو السائد شقة,apartment,,,,,,,31.913178,35.884551
الهدير للأجنحة الفندقية,,,hotel,,,,,,,31.9795639,35.8951446
Easy Inn,,,hotel,,,,,,,31.9887508,35.8750123
جرش,Hadrian's Gate Hotel,جرش,hotel,,,,4,,,32.2722406,35.8917833
,Zarqa - Jerash Rs ( Land 379 ),,camp_site,,,,,,,32.2476146,35.9770218
فندق درة المنصور,Durra Mansur Hotel,,motel,,,,,,,31.9715096,35.8435123
منزل صالح الأحمد,,منزل صالح الأحمد,apartment,,,,,,عمان,31.9477001,35.8815988
,Diplomat Apartments,,apartment,,,,,,,31.9488018,35.882932
,Naima Amman App,,apartment,,,,,,,31.9541316,35.8721324
Amman Inn,Amman Inn,,hotel,,,,,,,31.9561011,35.8697421
Officer house,,,apartment,,,,,,,31.9369542,35.8663601
Lorries,,,apartment,,,,,,,31.9362556,35.865806
Loretta,,Loretta Australian,apartment,,,,,,,31.9364016,35.8613359
,Olive Tree,,hotel,,,,,,,31.9425852,35.858393
منزل نبيل الخطيب,,,apartment,,,,,,,31.8699065,35.842963
بيت ست مي,,,apartment,,,,,,,31.9696515,35.8628431
My Home البيت,,,motel,,,,,,,31.979482,35.8515204
Ats,,,apartment,atm,,,,,,31.9988936,35.8809205
الززززززز,اللبد,,hostel,,,,,,,31.9557827,35.8515313
طبربور/عمان/نصر,,,apartment,,,,,,,32.0060376,35.9390732
Mos place,Mos place,,apartment,,,,,,,32.0215363,35.8835562
,Hw,,apartment,,,,,,,31.9947137,35.8432028
,,,hotel,,,,,,,31.9983562,35.8259398
فندق الفنار بالاس,Al Fanar Palace Hotel,فندق الفنار بالاس,hotel,,,,,,,31.9969156,35.8834801
الجوهرة الأجنحة الفندقية,Al-Jawhara Hotel,,hotel,,,,,,,32.0086361,35.8837987
Arena Space,Arena Space Hotel,,hotel,,,,,,,31.9855248,35.8772949
بيت صفوان,Safoun house,,guest_house,,,,,,,32.0303984,35.8580502
بيت صفوان,,,guest_house,,,,,,,32.0307707,35.8578073
النوم,stars,النجوم,apartment,,,,,,,31.9695938,35.8693491
فندق ريو الأردن,Rio Jordan Hotel,فندق ريو الأردن,hotel,,,,,,,32.0247928,35.8517311
,Gallery Hotel,,hotel,,,,,,,31.9533652,35.930026
Jordan River Hostel,Jordan River Hostel,,guest_house,,,,,,,31.9560008,35.9313791
Liv Weibdeh Hotel Suites,,,hotel,,,,,,,31.9562773,35.9284537
Nomads,,,hotel,,,,,,,31.9512863,35.9260591
,Hostel 1930,,hostel,,,,,,,31.9510054,35.9259663
نزل خروب,Carob Hostel,,hostel,,,,,,,31.9587592,35.9302473
La Locanda Hotel,,,hotel,,,,,,,31.9582534,35.921552
شقق الجمل,,,motel,,,,,,,31.9974377,35.8770099
Shaker Melhem,,,guest_house,,,,,,,31.9972088,35.8756431
روضة المورد النموذجية,,,apartment,,,,,,,31.9954074,35.8761792
Raouche,,,hotel,,,,,,,32.005447,35.8792562
,Grand Palace Hotel,,hotel,,,,,,,31.9765956,35.9051572
Rose Beity Hotel,,,motel,,,,,,,31.9771343,35.9029635
فندق لو غراند عمان,,,hotel,,,,,,,31.9699613,35.905784
عمارة عمر المختار 2 شلبه,,عمارة عمر المختار 2 شلبه,motel,,,,,,,31.9724403,35.911905
عمارة عمر المختار,,عمارة عمر المختار,hotel,,,,,,,31.9715817,35.91296
كمال اردن,,,guest_house,,,,,,,31.9745068,35.9136373
الكرمل للشقق الفندقية,,,hotel,,,,,,,31.972832,35.9112264
Regency Palace Hotel,Regency Palace Hotel,,hotel,,,,,,,31.9757627,35.9066233
ساندي بلاس,Sandy palace,,hotel,,,,,,,31.9686173,35.9157894
قصر جدة,,,hotel,,,,,,,31.9684671,35.9130684
منزل خلدون السويطي 2,,,hostel,,,,,,,31.9960918,35.9054386
,,,hostel,,,,,,,31.9960127,35.9054566
,Danske damer,,apartment,,,,,,,31.9843665,35.8849762
منزل ضياء صلاحات,,,hostel,,,,,,,31.8781536,35.8623865
شقتنا,,,motel,,,,,,,31.9903723,35.8579616
Mövenpick,,,hotel,,,,,,,31.9861377,35.8645485
فندق سميراميس,Samira Miss Hotel,فندق سميراميس,hotel,,,,,,,31.9900407,35.8715063
Ibis Amman,Ibis Amman,,hotel,,,,,,,31.9903937,35.8649198
حسين/ خلدا,,,apartment,,,,,,,31.9925607,35.8620057
العليا,,,apartment,,,,,,,31.9966419,35.8725821
,,,camp_site,,,,,,,31.9992508,35.8671776
Milad,Milad,,apartment,,,,,,,31.9992785,35.8665021
عمارة البترا,,,apartment,,,,,,,31.9963481,35.8601338
بيت حنان و رمزي,Hanan and Ramzi home,,apartment,,,,,,,31.9998898,35.8494662
City Rose Hotel Suites,City Rose Hotel Suites,,hotel,,,,,,,31.9968144,35.8721869
,Dawas Abed,,apartment,,,,,,,32.5864623,35.8474686
Home 2,,,guest_house,,,,,,,31.9199032,35.8869766
عمارة ابو دبور 6,,,hostel,,,,,,,31.8969153,35.918658
فندق قصر السلطان,,فندق قصر السلطان,hotel,,,,,,,31.9146707,35.9137824
The Wanderers Hostel,,,hostel,,,,,,,31.9522918,35.9177063
Shepherd Hotel,,,hotel,,,,,,,31.949397,35.9182325
Aljazeera Hotel,Aljazeera Hotel,,hotel,,,,,,,31.9649339,35.9147449
الصباح للشقق الفندقية,Sabbah hotel apartments,الصباح للشقق الفندقية,hostel,,,,,,,31.9624827,35.9170121
,Fabrizia house,,apartment,,,,,,,31.9574986,35.917638
iRealRent Thi Qar (Apartments 4 Rent),,,hostel,,,,,,,31.9560279,35.9134182
,Mariam Host,,guest_house,,,,,,,31.952368,35.91216
,The Y,,hotel,,,,,,,31.9527207,35.9194567
Delmon Suites,,,hotel,,,,,,,31.9522631,35.9029539
Red Rose Hotel and Suites,Red Rose Hotel and Suites,,hotel,,,,,,,31.9666798,35.8749827
Ocean Hotel,Ocean Hotel,,hotel,,,,,,,31.9673356,35.8748116
فندق ربوة الزهور,,,hotel,,,,,,,31.9193439,35.9239426
,Town of Mount Nebo hotel,,hotel,,,,,,,31.7604925,35.7449094
,Moh'd DMC appartment,,apartment,,,,,,,31.9766837,35.8456478
Seven Star,,Seven Star,hotel,,,,,,,31.9522066,35.8584511
,rozana,,hotel,,,,,,,31.9533489,35.8583147
,Panda Hotel,,hotel,,,,,,,31.9558478,35.8632268
Al Waleed,Al Waleed,,hotel,,,,,,,31.9579498,35.8613486
,no.7 apt of Kim MIL,,apartment,,,,,,,31.9679155,35.8349238
Larsa Hotel,Larsa Hotel,فندق لارسا,hotel,,,,,,,31.964693,35.8424583
ناصر ابوريان,naser abu rayyan,,guest_house,,,,,,,32.0039823,35.9486297
منزل ابو ابراهيم ريان,,,guest_house,,,,,,,32.012992,36.0255383
شقة ابو عدنان الحريري,,,apartment,,,,,,,32.0633979,35.8909501
ابو  ابراهيم  المزرعاوي,,,guest_house,,,,,,,32.0200665,35.8938849
diğerlerinin evi,,,guest_house,,,,,,,32.0299422,35.8781405
منزل حسام قموه,Hussain Gammoh Home,,apartment,,,,,,,31.9797413,35.8434054
منزل حسام قموه,Hussain Gammoh Home,,apartment,,,,,,,31.9797251,35.8434399
هديل الاردن,,,apartment,,,,,,,31.9840148,35.8531255
Umm Qais Hotel,,,hotel,,,,,,,32.6542629,35.6837299
ديوان القسايمه,Al Qasaimeh lounge,ديوان القسايمه,guest_house,,,,,,,32.5244172,35.7877968
Spa Village Hotel,Spa Village Hotel,,hotel,,,,,,,32.6833324,35.6621926
Qalet Al Jabal Hotel,,,hotel,,,,,,,32.3294399,35.7400094
,Full Panorama To Archaelogical Site Jarash,,apartment,,,,,,,32.2822104,35.8865371
Rami Abu Ein,,,hostel,,,,,,,32.5394253,35.8501218
Olive Branch Resort,,,hotel,,,,,,,32.2962867,35.855107
Olive Branch Campsite,,,camp_site,,,,,,,32.2956399,35.8546541
,,,hotel,,,,,,,32.3654968,35.8099374
منزل عامر هلسا,Amer Halasa Home,,apartment,,,,,,,31.9897425,35.847103
ابو هنانو الحريري,,,apartment,,,,,,,32.5492794,35.8078675
Beit Al-Baraka,,,guest_house,,,,3,6,,32.6552962,35.683602
ارض ٢٧٩ - خاص احمد قديمات,Zarga-Jerash Land 279,,camp_site,,,,,,,32.2894164,35.9873558
مضافة ال العمري (المخاتير),,,guest_house,,,,,,,32.4868307,35.796818
مضافة ال العمري (عبد الغني),,,guest_house,,,,,,,32.4884709,35.798542
عبد الفتاح ابو الامين,,,apartment,,,,,,,32.5811798,35.8655509
,Full panorama to archeological Site Jerash - Studio,,apartment,,,,,,,32.2882749,35.8839693
jerash hills,,,hotel,,,,,,,32.2903335,35.8820597
Ruins Wall,,,guest_house,,,,,,,32.2853084,35.892165
,,,camp_site,,,,,,,32.5411139,35.8405071
فندق الجود,,,hotel,,,,,,,32.5394793,35.8496536
مزرعة الدكتور يوسف,,,apartment,,,,,,,32.3289657,35.8605332
العشم,,,hotel,,,,,,,32.7135994,35.73139
فندق برج الأردن,Jordan Tower Hotel,فندق برج الأردن,hotel,,,,,,,31.9516775,35.937332
Roman Hotel,,Roman Theater Hotel,apartment,,,,,,,31.9531163,35.9393343
Haroon Hotel,,,hostel,,,,,,,31.9533008,35.941976
1234,1234,,apartment,,,,,,,32.0028035,35.9521736
خالد عصفور,,,guest_house,,,,,,,31.9935234,35.9391294
فندق جوهرة الزهور,,,hotel,,,,,,,31.9186552,35.9227504
مهندس. رائد حسني محمود,Eng. Ra'ed H Al-Qubbaj,,hostel,,,,,,,31.8691762,35.9215669
البيت,,منزل حماد الطلافيح,camp_site,,,,,,,31.8577087,35.9304413
فندق المعمورة,,,hotel,,,,,,,31.9209071,35.9375884
متحف الكروان,,,hotel,,,,,,,31.9475056,35.9346321
RSCN Azraq Lodge,,,hotel,,,,,,,31.8359285,36.8075883
DAR,DAR,,hotel,,,,,,,31.9564344,35.9311551
The Boutique Hotel Amman,,The Boutique Hotel Amman,hotel,,,,,,,31.9525717,35.9306288
Art Hotel,,,hotel,,,,,,,31.9523607,35.9325286
The Cabin Hostel,,,hostel,,,,,,,31.9525236,35.932519
,,,hotel,,,,,,,31.9526023,35.9320725
فندق منصور,Mansour Hotel,فندق منصور,hotel,,,,,,,31.9522852,35.9328553
Farah Hotel,Farah Hotel,,hotel,,,,,,,31.9518214,35.9329549
Abbasi Palace Hotel,,فندق القصر العباسي,hotel,,,,,,,31.9473785,35.9344544
guest house hazem,,,guest_house,,,,,,,31.8792289,36.8251611
منزل خلدون السويطي,,,hostel,,,,,,,31.961845,35.9303399
عمر عبدالستار نواس,Omar AbdStar Nawas,,apartment,,,,,,,31.9830954,35.9226533
,7 Days,,hotel,,,,,,,29.5229869,35.0033031
Nairoukh Hotel,,,hotel,,,,,,,29.5267724,35.007832
walaa house,walaa house,,guest_house,,,,,,,31.9902073,35.9579584
خالو ياسين,,خالو ياسين,motel,,,,,,,32.0340525,35.8772345
AlFares Tourist Hotel,,,hotel,,,,,,,30.8402567,35.6510176
دار عمي أبو جهاد,,دار عمي أبو جهاد,guest_house,,,,,,,31.8938979,35.836585
Bait Zaman,Beit Zaman Hotel Resort,بيت زمان,hotel,,,,,,,30.3268031,35.4872291
Amman Pasha Hotel,,فندق باشا عمان,hotel,,,,,,,31.9525219,35.9378725
Jubaiha's Apartment.,Jubaiha's Apartment.,,guest_house,,,,,,,32.0209278,35.8910833
Jubieha's House,Jubieha's House,,guest_house,,,,,,,32.0208984,35.8911825
Najjar 6,Najjar 6,,apartment,,,,,,,31.9388532,35.8985106
Seven Roses Hotel,Seven Roses Hotel,,hotel,,,,,,,31.9556742,35.8567512
Crystal Suites Hotel,Crystal Suites Hotel,,hotel,,,,,,,31.9627023,35.8828826
منزل المهندس مجدي طلبه,,,apartment,,,,,,,31.9915094,35.8873096
Seedu's House,,,guest_house,,,,,,,31.936774,35.9433416
Al Hamed Housing,,,hostel,,,,,,,32.5395911,35.85105
Mohammad,,,hostel,,,,,,,32.0195635,35.8551956
J Plaza Hotel,,,hotel,,,,,,,29.5283501,35.0061315
Bait Al-aqaba,,,hotel,,,,,,,29.4262846,34.979498
,,,hotel,,,,,,,29.412738,34.9783442
,,,hotel,,,,,,,29.4134295,34.9781811
فندق مارينا بلازا,Marina Plaza,فندق مارينا بلازا,hotel,,,,,,,29.4103176,34.98099
,,,camp_site,,,,,,,29.5158552,35.4332261
Al-Mansi,,,guest_house,,,,,,,32.5252136,35.8492485
evim,,,guest_house,,,,,,,32.021011,35.8689527
,,,camp_site,,,,,,,31.4374238,35.7995403
yanlış yol,,,guest_house,,,,,,,32.0214921,35.8688014
evim,,,guest_house,,,,,,,32.0204467,35.8696179
الإبراهيمية,,,camp_site,,,,,,,32.4297761,35.8260028
Beach Hotel,,,hotel,,,,,,,29.5264236,35.0022384
,Alreshik hotel,,hostel,,,,,,,29.5265604,35.0033905
,Crystal hotel,,hotel,,,,,,,29.5261341,35.002308
,,,apartment,,,,,,,32.0032586,35.8764922
Um Ghada Rum,,,camp_site,,,,,,,29.442673,35.3344477
Roza Beach Hotel,,,hotel,,,,,,,29.5251763,35.0023123
Sea View Hotel,,,hotel,,,,,,,29.5249416,35.0024083
My Hotel,,,hotel,,,,,,,29.5320325,35.0022779
,,,apartment,,,,,,,29.5457318,35.0391371
Wadi Rum Fire Camp,,,camp_site,,,,,,,29.4894187,35.4305756
,Mohammed Mutlak Camp,,camp_site,,,,,,,29.4873381,35.3873472
,Wadi Rum Bedouin Tour with a Camp,,camp_site,,,,,,,29.4882619,35.3983492
,Khaled's Camp,,camp_site,,,,,,,29.4868419,35.3940851
,Desert Shine Camp,,camp_site,,,,,,,29.4826788,35.4047075
,Firecamp,,camp_site,,,,,,,29.4801373,35.4205165
,,,camp_site,,,,,,,29.6308887,35.5092349
,,,camp_site,,,,,,,29.5707411,35.4106924
,,,camp_site,,,,,,,29.5703848,35.4113053
,,,camp_site,,,,,,,29.6135418,35.4807173
,,,camp_site,,,,,,,29.6151725,35.4926995
,,,camp_site,,,,,,,29.6270273,35.4888954
,,,camp_site,,,,,,,29.6275547,35.4928807
Obeid's Bedouin Life Camp,,,camp_site,,,,,,,29.6289003,35.4869033
rumsky adventuers,,,camp_site,,,,,,,29.6344574,35.4908339
Sun City Camp,,,camp_site,,,,,,,29.656924,35.4796077
Sharah Luxury Camp,,,chalet,,,,,,,29.6578337,35.487665
,,,camp_site,,,,,,,29.6157497,35.5142484
,,,camp_site,,,,,,,29.614129,35.5140364
,Saiel tourist camp,,camp_site,,,,,,,29.6583403,35.4878421
Rum Magic Camp,,,camp_site,,,,,,,29.6383703,35.5037624
,,,camp_site,,,,,,,29.5742441,35.4614535
Ammarin Bedouin Camp,,,camp_site,,,,,,,30.3815497,35.4495047
Petra Sella,,,hotel,,,,,,,30.3201302,35.4834382
,Peace Way Hotel,,hotel,,,,,,,30.3209167,35.4808755
,My Home Petra,,hotel,,,,,,,30.322035,35.4800528
Sabaa,,,hotel,,,,,,,30.3218905,35.4800749
Petra Star Hostel,,,hostel,,,,,,,30.3212859,35.4801376
Petra Capsule Hostel,,,hostel,,,,,,,30.3213533,35.4803074
Rafiki Hostel,,,hostel,,,,,,,30.3232898,35.4793202
The little B&B on the hill,,,guest_house,,,,2,5,,30.3334561,35.4761222
Petra Bed and Breakfast,,,guest_house,,,,4,,,30.3336939,35.4773205
Petra paradise home,,,hotel,,,,,,,30.3294367,35.4798838
Moses Residence,,,hotel,,,,,,,30.321232,35.4807832
,,,camp_site,,,,,,,30.5371196,35.429636
Wild camping place,,,camp_site,,,,,,,30.9970085,35.7158573
شقق ال الدويك,,,apartment,,,,,,,29.548753,35.0144048
Beduin lifestyle camp,,,camp_site,,,,,,,29.5097524,35.412288
Camp,,,hostel,,,,,,,29.5028388,35.4088944
,,,camp_site,,,,,,,29.5011569,35.4382229
,Welcome to Wadi Rum Camping,,camp_site,,,,,,,29.5152092,35.4405995
,Beduin Camp,,camp_site,,,,,,,29.5137356,35.4508031
,,,camp_site,,,,,,,29.5149446,35.4493487
,Joy of Life,,camp_site,,,,,,,29.5029274,35.4641115
Wadi Rum 7 Pillars Camp,,,camp_site,,,,,,,29.5012904,35.4738196
Rum Stars camp,,,camp_site,,,,,,,29.5044134,35.4693568
,,,camp_site,,,,,,,29.5117035,35.4748964
Mzied's Camp,,,camp_site,,,,,,,29.5156249,35.4723001
,,,camp_site,,,,,,,29.5271747,35.4810319
Bedouin Roads,,,camp_site,,,,,,,29.518884,35.4632476
Beyond Wadi Rum Camp,,,hotel,,,,,,,29.5196249,35.4422075
,,,camp_site,,,,,,,29.541106,35.4317578
,,,camp_site,,,,,,,29.540346,35.4341411
Wadi Rum Bedouin Camp,,,camp_site,,,,,,,29.5396354,35.4343843
Wadi Rum Bedouin Camp,,,camp_site,,,,,,,29.5396354,35.4343843
,,,camp_site,,,,,,,29.5384751,35.436981
,,,camp_site,,,,,,,29.5373389,35.4373176
,Oriental camp,,camp_site,,,,,,,29.5377605,35.4039783
Local Camp,,,camp_site,,,,,,,29.4979721,35.4594016
,,,camp_site,,,,,,,29.4979828,35.452037
Omar Bedouin camp,,,camp_site,,,,,,wadirum,29.4973623,35.4125207
Rainbow Camp,,,camp_site,,,,,,,29.4942042,35.3965546
Rainbow,,,camp_site,,,,,,,29.4938821,35.3964035
,,,camp_site,,,,,,,29.4948787,35.3935153
Desert Moon Camp,,,camp_site,,,,,,,29.4990416,35.3983015
,,,camp_site,,,,,,,29.5060414,35.4125743
,,,camp_site,,,,,,,29.5038125,35.4010644
منزل عبد الله طالب السويطي,,,hostel,,,,,,,31.9972897,35.9159043
,,,hotel,,,,,,,31.9899354,35.8714753
شقق الفيصل الفندقية,,,motel,,,,,,,31.9872751,35.8967484
منزل محمد سنجلاوي (أبو أسامه),,منزل محمد سنجلاوي (أبو أسامه),hostel,,,,,,,32.5469978,35.9832025
Malakot of Wadi Rum,,,hotel,,,,,,,29.8297808,35.3840952
temporär,,,camp_site,,,,,,,30.0898045,35.3700272
,Room17 Youth Hostel,,hostel,,,,,,,29.554038,34.9996195
Hospitality Palace Hotel,,,hotel,,,,,,,29.5255718,35.0022339
,,,camp_site,,,,,,,30.2772371,35.4123151
,,,hotel,,,,,,,30.3142506,35.4755235
,Petra House for Hospitality,,hotel,,,,,,,30.3168044,35.4762446
Asad apt.,,,hotel,,,,,,,30.3168002,35.4776681
,AQTC,,camp_site,,,,,,,29.7967632,35.2696189
Alena Hotel,,,hotel,,,,,,,29.5246825,35.0074436
Taj Hotel,,,hotel,,,,,,,29.5251117,35.006579
,Hotel Prestige,,hotel,,,,,,,29.5282742,35.0062517
Aquamarina 3,,,hotel,,,,,,,29.5270055,35.0100641
BARAKA AL AQABA HOTEL SUITES,,,hotel,,,,36,,العقبة,29.524301,35.0088121
,,,camp_site,,,,,,,29.5526073,35.4499989
Michelle camp,,,camp_site,,,,,,,29.5555273,35.4445546
Wadi Rum Night Luxury Camp,,,camp_site,,,,,,,29.5608036,35.4514266
Memories Aicha Luxury Camp,,,camp_site,,,,,,,29.546697,35.435211
,,,camp_site,,,,,,,29.5443606,35.430772
,,,camp_site,,,,,,,29.5543864,35.4060415
Shakria Bedouin Life Camp,,,camp_site,,,,,,,29.6582342,35.4463472
مخيم بيت علي وادي رم (m$h),,,camp_site,,,,,,,29.6864948,35.427363
Wadi Rum Sand Storm Camp,,,camp_site,,,,,,,29.5514473,35.4564438
Bedouin Yoga Camp Wadi Rum,,,camp_site,,,,,,,29.563453,35.462395
Wadi Rum Green Desert,,,camp_site,,,,,,,29.583159,35.4964238
Salman Zwaedh camp,,,camp_site,,,,,,,29.5977006,35.4966001
,,,camp_site,,,,,,,29.6032563,35.4992373
Alamelh Camp,,,camp_site,,,,,,,29.6147167,35.4824019
,Rahayed Desert Camp,,hotel,,,,,,,29.6425682,35.5123844
Sand Rose Camp (Hillawi Camp),,,camp_site,,,,,,,29.6389896,35.5048829
,Barqash Hostel,,guest_house,,,,,,,32.4137919,35.7428617
Al-Joud Hotel,,,hotel,,,,,,,32.5400274,35.8495625
home amman,,,guest_house,,,,,,,31.9441577,35.9614742
Amer 2,,,hotel,,,,,,,29.5288329,35.0036032
Amer Hotel 2,,,hotel,,,,,,,29.5288415,35.003617
,Petra Sky Hotel,,hotel,,,,,,,30.3191659,35.4802873
Pq,,,hostel,,,,,,,30.3185519,35.4796775
Rummana Camp,,,camp_site,,,,,,,30.6871227,35.5732921
الوحيدات,Wohedat,,camp_site,,,,,,,30.4313188,35.4559751
,Edom Hotel,,hotel,,,,,,,30.325722,35.4703462
Petra Bods Hostel,,,hostel,,,,,,,30.3252721,35.4724291
Candles  hotel,,,hotel,,,,,,,30.3264258,35.471605
,Petra Cabin Hostel&Restaurant,,hostel,,,,,,,30.3266737,35.4703953
360 hostel,,,hostel,,,,,,,30.3267066,35.4703895
,Mount Dana Hotel,,guest_house,,,,,,,30.6709352,35.6186778
,Carob Hostel,,hostel,,,,,,,31.9587736,35.930267
فندق الفراشة,,,hotel,,,,,,,32.0285906,35.8650865
,,,hostel,,,,,,,31.8704354,36.0080379
صخر هديرس,,,guest_house,,,,,,,32.1429849,35.6164518
Al-Safa Tourist Hotel,,,hotel,,,,,,,29.5296477,35.004388
,Amir Palace hotel,,hotel,,,,,,,29.5302637,35.0065478
شقق الياسمين المفروشه,,شقق الياسمين المفروشه,hotel,,,,,,,29.5292125,35.0070814
Oscar Hotel,,,hotel,,,,,,,30.3193371,35.472369
7 Caves house,,,hotel,,,,,,,30.5289358,35.5648239
The smallest Hotel in the World,,,guest_house,,,,,,,30.5291784,35.5649979
Nomads Hostel,,,hostel,,,,,,,30.321748,35.4731288
Esperanza,,,hotel,,,,4,10,,30.3283907,35.4703447
,my home,,apartment,,,,,,,30.343515,35.4587334
,Petra Mars Camp,,camp_site,,,,,,,30.3700449,35.4615468
little petra heritage village,,,hotel,,,,,,,30.3782262,35.4689882
Dana Panorama Hotel,,,hotel,,,,10,23,,30.672533,35.6110687
Dana Hotel,,,hotel,,,,,,,30.675145,35.610003
Wadi Dana Eco-Camp,,,guest_house,,,,,,,30.6841314,35.6128294
,,,hotel,,,,,,,31.9607808,35.8692749
مالك,,,apartment,,,,,,,31.7148656,35.7912862
بغداد غران هوتيل,Baghdad Grand Hotel,بغداد غران هوتيل,hotel,,,,,,,31.9517651,35.9327749
Concord Hotel,,فندق كونكورد,hotel,,,,,,,31.9526729,35.9381755
Bedouin Meditation Camp,,,camp_site,,,,,,,29.4834988,35.3929743
,Arjana Rotana - Amman,,hotel,,,,,,,31.9648636,35.9040935
بوليفار روتانا,,بوليفار روتانا,hotel,,,,,,,31.9646693,35.9068299
نادي ضباط الشمال,,,hotel,,,,,,,32.5517878,35.8641042
Bedouin Stylelife Camp,,,camp_site,,,,,,,29.6264572,35.4837309
سال,,,camp_site,,,,,,,32.5707682,35.9107978
الطرزي للاسكان 2,,,motel,,,,,,,32.5638313,35.8789095
فندق راديسون بلو عمان,,,hotel,,,,,,,31.9593473,35.8623739
Petra Nights Hotel,,,hotel,,,,,,,30.3230808,35.486458
مخيم وادي رم,,,camp_site,,,,,,,29.6294298,35.4825255
العيادات الخارجية سابقا,,,apartment,,,,,,,32.5237782,35.853495
Captain's Hotel,,,hotel,,,,,,,29.5311526,35.0024414
فندق أحلى طلة,Ahla Talla Hotel,فندق أحلى طلة,hotel,,,,,,العقبة,29.5230255,35.002832
,,,hotel,,,,,,,31.9966849,35.8517447
ajnadeen,,,hotel,,,,,,,32.5321889,35.8544329
,Cabin Hostel,,hostel,,,,,,,30.326749,35.4703936
Feynan Eco Lodge,,,hotel,,,,,,,30.6395644,35.5092874
,,,hostel,,,,,,,30.1963145,35.7259439
Afnan,,,hotel,,,,,,العقبة,29.5232121,35.0031676
,héritage Inn,,hotel,,,,,,,31.282369,35.7118212
,Bedouin camp,,camp_site,,,,,,,31.2927938,35.6460866
منزل فابريزيا,,منزل فابريزيا,apartment,cafe,,,,,عمان,31.9390189,35.8665781
شقتي,,,apartment,,,,,,,31.9917112,35.8397656
,,,hotel,,,,,,,31.1823205,35.7036508
Al-Mujeb Hotel,,,hotel,,,,,,,31.1708864,35.73182
7 days,,,hotel,,,,,,,32.5383705,35.851814
White House,,,apartment,,,,,,,31.1875334,35.7053763
مزرعة عامر هلسا,Amer Halasa Farm,,apartment,,,,,,,31.3006196,35.7760257
منزل ميخائيل هلسا- الكرك,Michael Halasa Home - Al - Karak,,apartment,,,,,,,31.2899461,35.7990578
البرج الازرق للشقق الفندقية - اجنحة فاخرة,,,hotel,,,,,,,31.9196094,35.9225185
Dream Camp,,,camp_site,,,,,,,29.6419739,35.4894627
Seven Wonders Bedouin Camp,,,hostel,,,,,,,30.3682548,35.462328
Sulaf Luxury Hotel,,فندق سولاف,hotel,,,,,,,31.9875984,35.8669588
,,,camp_site,,,,,,,29.5061086,35.4377812
,,,camp_site,,,,,,,29.517199,35.4751679
Jayyah Camping,,,camp_site,,,,,,,30.5265471,35.5631284
Montreal Hotel,,,hotel,,,,,,,30.5263291,35.5650009
Dana Moon Hotel,,,guest_house,,,,,,,30.6748839,35.6104168
Rock Camp,,,camp_site,,,,,,,30.4118938,35.4519431
المنزل,,,hostel,,,,,,,32.5592533,35.8251573
Hakaia Community Hostel,,,hostel,,,,,,Aqaba,29.5278483,35.0060458
Captain's Camp,,,camp_site,,,,,,,29.6361274,35.5121357
,The City Centre Hostel,,hotel,,,,,,,29.5290162,35.0036511
,,,camp_site,,,,,,,32.5400087,35.8427828
Dali House,,,hotel,,,,,,,31.9550842,35.9278401
Soho Midtown Hotel,,,hotel,,,,,,,31.9556807,35.9257113
Desert Bird Camp,,,camp_site,,,,,,,29.5257449,35.4484981
,,,guest_house,,,,,,عمان,31.9418299,35.8677925
فندق جراند ستا,crand stay hotel,,hotel,,,,,,,31.9848742,35.8690623
Signia by Hilton Amman,,,hotel,,,,272,,Amman,31.9684555,35.8973019
Al-Naher Al-Khaled Hotel,,,hotel,,,,,,,29.5255111,35.004626
,,,camp_site,,,,,,,29.6337365,35.5009727
,,,apartment,,,,,,العقبة,29.5496408,35.0090166
,Sun Set Hotel,,hotel,,,,,,,30.3252245,35.4718172
Ajloun Hotel,,,hotel,,,,,,,32.3296119,35.7344485
,Wild Campsite - Ras Al-Fayd,,camp_site,,,,,,,30.5080376,35.4915667
,,,chalet,,,,,,,30.1130611,35.1545087
Al Amer Hostel,,,hostel,,,,,,,29.5254724,35.0089921
Silk Road Hotel,,,hotel,,,,,,,30.3253632,35.4711707
Gardenia Hotel,,,hotel,,,,,,,31.980354,35.8933286
,,,motel,,,,,,,31.8716603,35.890171
مضافة ال العمري (بني موسى),,,guest_house,,,,,,,32.4863812,35.7923378
سليمان الحريري,,,hostel,,,,,,,32.3004837,36.3182098
Bibliothèque,,,apartment,library,,,,,,31.981208,35.8747535
منزل المهرب,,,camp_site,,,,,,,32.6704009,38.1121433
Bedouin Directions Camp,,,camp_site,,,,,,,29.4649678,35.377062
شرحبيل بن حسنة,Jordan Eco Park,شرحبيل بن حسنة,camp_site,,,,,,,32.5266357,35.6182044
فندق شام,Amman Paradaise Hotel,فندق شام,hotel,,,,,,,31.9754111,35.8946921
,Wadi Rum Legend Camp,,camp_site,,,,,,,29.6573979,35.4755798
Hayat Zaman Hotel & Resort,,,hotel,,,,,,Taybeh,30.2548309,35.4598663
The Loft Hotel By Bratus,,,hotel,,,,110,,Aqaba,29.5319199,35.0028051
إربد بلازا,Irbid Plaza,إربد بلازا,hotel,,,,,,,32.5319918,35.8519312
Al Sultana Luxury Camp,,,camp_site,,,,,,,29.6349052,35.5088858
فندق رافي,,فندق رافي,hotel,,,,,,,31.9505987,35.9368279
Oxygen Buildings,,,apartment,,,,,,,31.9123382,35.8833111
Karam House Inn,,,hotel,,,,15,,Aqaba,29.5289597,35.0063195
Col Laroche house,Col Laroche house,,apartment,,,,,,,31.951678,35.864392
Rama Hotel,Rama Hotel,,hotel,,,,,,,31.9627173,35.8571165
,AAQ Home - Amman,,apartment,,,,,,,32.0103761,35.9353914
Geneva Hotel,Geneva Hotel,,hotel,,,,,,,31.963401,35.8568498
,AAA Q Home - Amman,,apartment,,,,,,,32.01041,35.9353846
Liwan Hotel,Liwan Hotel,,hotel,,,,,,,31.9558818,35.8653427
Ruba,Ruba,Ruba,guest_house,,,,,,,31.9871553,35.9348314
برج العرب,Arab Tower,برج العرب,hotel,,,,,,Amman,31.9513414,35.9361196
Heritage House,Heritage House,,hotel,,,,,,,31.949759,35.931086
Qaimaris,Qaimaris,,guest_house,,,,,,,31.9040391,35.8661371
Sun Rise Hotel,Sun Rise Hotel,,hotel,,,,,,,31.9601739,35.9181977
Rayshan Hotel,Rayshan Hotel,,hotel,,,,,,,31.9821164,35.8905315
N,N,Najwan,apartment,,,,,,,31.995747,35.888786
الورده البيضاء,White Rose Hotel,الورده البيضاء,hotel,,,,,,,31.8938854,35.8411797
Misk Hotel,,,hotel,,,,,,Shmeisani,31.9801808,35.8935127
Happy Bedouin House,,,guest_house,,,,,,,30.3446574,35.456727
Arabian Nights Camp,,,camp_site,,,,,,,29.5035299,35.4368918
محمود الشيخ سالم,,محمود الشيخ سالم,hostel,,,,,,عمان,31.9653359,35.8624205
Wadi Rum Desert Base Camp,,,camp_site,,,,,,,29.5488777,35.4635184
St. Jador Rest House,,,hostel,,,,,,,31.8773872,36.8232134
Space Village Camp,,,camp_site,,,,,,,29.6465303,35.4791185
Jad Al Younis house,,,guest_house,,,,,,,31.8779493,36.8241046
عمارة رقم 13,,,apartment,,,,,,,31.9537895,35.8747552
فندق فرح,Farah Hotel,فندق فرح,hotel,,,,,,,31.9529142,35.9329892
Down Town Hotel Apartments,,,hotel,,,,,,,31.9632357,35.9061987
Jabal Amman Hotel,Jabal Amman Hotel,,hotel,,,,0,,Amman,31.9495984,35.9310623
King Hussein Bin Talal Convention Center,,,hotel,,,,,,,31.7213016,35.5893474
Marriott Hotel,,,hotel,,,,,,,31.7187633,35.5866568
Merryland Hotel,New MerryLand Hotel,,hotel,,,,,,,31.9592656,35.9214877
Extra Traveller Hostel,,,hostel,,,,,,,29.5344092,35.0002517
Wild Camp,,,camp_site,,,,,,,31.051441,35.6586834
Wild Camp,,,camp_site,,,,,,,31.0078761,35.6635351
Wild Camp,,,camp_site,,,,,,,32.4465149,35.6988357
Final Camp,,,camp_site,,,,,,,29.4665158,35.111754
Wild Camp,,,camp_site,,,,,,,29.7374105,35.4513341
Carved Boulder Wild Camp,,,camp_site,,,,,,,30.1822443,35.2918391
Wild Camp,,,camp_site,,,,,,,30.1006397,35.2311321
Wild Camp,,,camp_site,,,,,,,30.0257077,35.230111
Wild Camp,,,camp_site,,,,,,,30.0140279,35.2371523
Wild Camp,,,camp_site,,,,,,,29.9773244,35.3117374
Wild Camp,,,camp_site,,,,,,,29.8669287,35.4042682
Wild Camp,,,camp_site,,,,,,,29.8096604,35.4538846
Wild Camp,,,camp_site,,,,,,,29.4253013,35.3257602
Wild Camp,,,camp_site,,,,,,,31.4554592,35.7284399
Wild Camp,,,camp_site,,,,,,,30.5403174,35.4276368
Wild Camp,,,camp_site,,,,,,,32.2308106,35.7771237
Wild Camp,,,camp_site,,,,,,,32.1824558,35.7976611
Wild Camp,,,camp_site,,,,,,,31.6865989,35.6473974
Wild Camp,,,camp_site,,,,,,,31.5987714,35.6349956
Wild Camp,,,camp_site,,,,,,,31.5076803,35.6955286
Wild Camp,,,camp_site,,,,,,,30.479804,35.4653258
Wild Camp,,,camp_site,,,,,,,30.4269637,35.4542809
Wild Camp,,,camp_site,,,,,,,30.3765376,35.4292802
Wild Camp,,,camp_site,,,,,,,32.2889636,35.7481806
Wild Camp,,,camp_site,,,,,,,32.2446359,35.7629803
Wild Camp,,,camp_site,,,,,,,31.9906461,35.7390424
Wild Camp,,,camp_site,,,,,,,32.0017221,35.7460444
مزرعة جوهرة السلط,,,hostel,,,,,,,32.1151575,35.7975787
Huge Boulder Wild Camp,,,camp_site,,,,,,,30.0508731,35.2318968
محمود سعادة,,,apartment,,,,,,,32.0745778,35.8596508
اسماعيل سعادة,,,apartment,,,,,,,32.0747866,35.8598372
Magical Desert Dunes,,,camp_site,,,,,,,29.6366633,35.4940404
Dana Nabil Eco Camp House,,,hotel,,,,,,,30.701205,35.5953046
,Twins Downtown Hotel,,hotel,,,,,,,31.9523341,35.9313622
,"OlD house, castle street 61110 Kerak",,hotel,,,,,,,31.1811964,35.7031667
,Petra Castle Hotel,,hotel,,,,,,,30.3243626,35.4969822
,Qastal Amman,,hotel,,,,,,,31.7350923,35.9443241
strand hotel,,,hotel,,,,,,,31.9558265,35.8701277
,,,apartment,,,,,,,32.0355098,35.7299299
,Jarash Gate Suite,,apartment,,,,,,,32.2903569,35.8826677
,Desert Moon,,hostel,,,,,,,30.323516,35.4802492
,Normas Hotel,,hotel,,,,,,,31.9519565,35.9316491
,فحص,,apartment,,,,,,,31.9276199,35.8335977
Hotel Philosophy,,,hotel,,,,,,,31.9520202,35.9288654
Wadi Mujib Chalets,,,hotel,,,,,,,31.4702538,35.568775
مخيم الحياة البرية,Wild life camp,,camp_site,,,,,,,29.7017975,35.5492848
,Dana Stars Hotel,,hotel,,,,,,,30.6756042,35.6097928
,Hassan Zawaidah Wadi Rum camp,,camp_site,,,,,,,29.6603226,35.4871579
Rum Kingdom Camp,,,camp_site,,,,,,,29.6543893,35.475839
طريق الهوبيت,Hobbit’s trial,,camp_site,,,,,,,30.6759037,35.6108682
,New Park,,hotel,,,,,,,31.9560647,35.9314141
marhaba furnished apartment,,,motel,,,,2,,عمان,32.0248157,35.8744714
,,,camp_site,,,,,,,29.5093459,35.3858887
,,,camp_site,,,,,,,29.5724446,35.412515
,,,camp_site,,,,,,,30.1025542,35.247718
,,,camp_site,,,,,,,30.2155161,35.3352043
,,,camp_site,,,,,,,30.5396186,35.451863
,Luciana Hotel,,hotel,,,,,,,29.5257863,35.0061839
,Al nawatef camp eco,,camp_site,,,,,,,30.6160864,35.6049451
Karak dream,,,motel,,,,,,,31.1827136,35.7034628
,,,camp_site,,,,,,,30.5271604,35.4524611
,,,camp_site,,,,,,,30.3746871,35.4385605
house,,,guest_house,,,,,,,32.0043525,35.8811492
,Rahayed Desert Camp,,hotel,,,,,,,29.64334,35.5056211
نزل جدار المدينة,Ruin Wall Hotel&Hostel,,hostel,,,,,,,32.285262,35.8922273
Wadi Rum EcoTours Bedouin Camp,,,camp_site,,,,,,,29.5036793,35.4369926
نزل خروب,Carob Hostel,,hostel,,,,,,,31.9587065,35.9302373
عمارة 95,,,hostel,,,,,,,31.9297447,35.9122741
jawal hotel,,,hotel,,,,,,,31.9517809,35.9367936
Luxury Mazayen Rum Camp,,,camp_site,,,,,,,29.6326433,35.4979466
Blue House Gerasa,,,guest_house,,,,,,,32.2783603,35.8980434
STAY Chalet,,,apartment,,,,,,,31.8287621,35.6812553
Jordan Guest House,,,guest_house,,,,,,,30.3100128,35.4757156
Darna Hostel,,,hostel,,,,3,,,31.9544625,35.9286852
Petra Moon Luxury Hotel,,,hotel,,,,,,,30.3268319,35.4689982
Venus Hotel,,,hotel,,,,,,,30.3266007,35.4690892
Khalid’s Beduin Authentic Camp,,,camp_site,,,,,,,29.5835333,35.4964289
Abu Subah Beduin Camp,,,camp_site,,,,,,,29.9751618,35.3653334
Abu Subah Beduin Camp,,,hotel,,,,,,,29.9752327,35.3653979
,,,guest_house,,,,,,,30.2555425,35.4564196
Golden Rose Hotel,,,hotel,,,,,,,29.5278927,35.005595
برية وادي رم,Wild Wadi Rum,,camp_site,,,,,,,29.5129412,35.4772878
La Casa Hotel,,,hotel,,,,,,,31.9925324,35.863659
شقق مفروشة ام محمد,Aparyments Um Mohmed for rent,,apartment,,,,,,,31.950134,35.9058862
,Rum Hotels,,hotel,,,,,,,31.9579504,35.8614748
Jewheret Alswefia Hotel Suites,,,hotel,,,,,,,31.9581879,35.8613466
Hilton Amman,,,hotel,,,,173,,Amman,31.9666803,35.899086
,Barqash House - best homestay!,,guest_house,,,,,,,32.4137959,35.7427936
,Barqash Hostel,,guest_house,,,,,,,32.4137931,35.7428516
,,,apartment,,,,,,,31.9749787,35.882951
,Faraseen Apartments,,apartment,,,,,,,31.734991,35.9441969
Wadi Rum Tours ( Saleh's Safari Camp),,,camp_site,,,,,,,29.5159607,35.4119831
Homestay Rasoun,,,hostel,,,,,,,32.4017084,35.7593741
Beit Al Fannan,,,hotel,,,,,,,32.4504433,35.6183529
Beit Idis Homestay,,,hostel,,,,,,,32.4404882,35.6818267
my grandfather haous,,,hotel,,,,3,,القادسية,30.677515,35.6097951
Dream House hotel,,,hotel,,,,,,,32.2797257,35.8981271
Camp Husban 1,,,camp_site,,,,,,,31.8336902,35.7718846
Ecolodge,,,hotel,,,,8,,,31.8717395,35.6313209
,Airbnb Aqaba,,guest_house,,,,,,,29.531577,35.0116244
Hobbit houses,,,camp_site,,,,,,,30.6765784,35.6111373
,Rum Jordan Camp,,camp_site,,,,,,,29.7163788,35.5161666
aljamalhotel,,,hotel,,,,34,,amman,32.0043118,35.8708342
مشروع النقابة ١,JEA,,apartment,,,,,,,31.8117337,35.9234588
عمي ابو كمال,Abu Kamal,,apartment,,,,,,,32.3014884,35.7388616
,Abu Kamal,,apartment,,,,,,,32.3015262,35.7390755
,"JEA ,Project 1",,apartment,,,,,,,31.8120354,35.92333
AbuFares,,,apartment,,,,,,,32.0007328,35.9489375
,Good place for a tent,,camp_site,,,,,,,30.6186309,35.525388
,Good place for a tent,,camp_site,,,,,,,30.6210405,35.5171015
,Good place for a tent,,camp_site,,,,,,,30.6135638,35.5329999
,Airbnb Aqaba II,,guest_house,,,,,,,29.541789,35.0200428
,,,hotel,,,,,,,31.9792259,35.8963223
قصر سبا,,,hotel,,,,,,,31.9794487,35.8980309
,Petra Royal Ranch,,guest_house,,,,,,,30.3699609,35.4675347
Cliff Hotel,,,hotel,,,,,,Amman,31.9520272,35.9319619
شقتنا,,,apartment,,,,,,,31.989401,35.8568836
Petra Palace Hotel,,,hotel,,,,,,,30.3253411,35.4719751
Dana Tower Hotel,,,guest_house,,,,,,,30.6755371,35.6093639
,Hakaia Hostel,,hostel,,,,,,,29.5280719,35.0063122
Wadi Dahek,,,camp_site,,,,,,,31.5964751,37.1160194
,RAWA’AT ALAQABA,,hotel,,,,,,,29.5257174,35.0066699
Seven Wonders Bedouin Camp,,,hotel,,,,,,Wadi Musa,30.368034,35.4619548
Dream Bedouin Life Camp Wadi Rum,,,camp_site,,,,,,,29.6504822,35.4450903
,,,hotel,,,,,,,32.3297287,36.3683831
,,,camp_site,,,,,,,32.2515935,35.7587231
,,,camp_site,,,,,,,29.5198197,35.4423997
,,,camp_site,,,,,,,29.4981072,35.454016
,,,camp_site,,,,,,,29.5360988,35.4380145
,,,camp_site,,,,,,,29.6077907,35.4821974
,,,camp_site,,,,,,,29.6250554,35.5010186
,,,camp_site,,,,,,,29.6282253,35.4878546
,,,camp_site,,,,,,,29.6104197,35.4803641
,,,camp_site,,,,,,,29.6327255,35.4977715
,,,camp_site,,,,,,,29.6527724,35.4867119
,,,camp_site,,,,,,,29.602029,35.4608184
,,,camp_site,,,,,,,29.5302465,35.4430211
,,,camp_site,,,,,,,29.5217247,35.4542337
,,,camp_site,,,,,,,29.5226834,35.4543475
,,,camp_site,,,,,,,29.5086097,35.4105823
,,,camp_site,,,,,,,29.5249917,35.4270109
,,,camp_site,,,,,,,29.4784155,35.3926328
Ibrahim Jawabreh's house,,,guest_house,,,,,,,32.6531468,35.680632
Canary Hotel,,,hotel,,,,,,,31.9572222,35.9187293
Phoenix Hotel,,,hotel,,,,,,,31.7232666,35.7919099
بيت الكرم,Beit alkaram,,guest_house,,,,,,,31.1824218,35.7027741
Magic Bedouin Star,,,camp_site,,,,,,,29.5221811,35.4500908
Khaled's Camp,,,camp_site,,,,,,,29.4753074,35.4081142
,,,camp_site,,,,,,,29.5776439,35.4191705
,,,camp_site,,,,,,,29.6335691,35.5048829
,,,camp_site,,,,,,,29.6357387,35.5063221
,,,camp_site,,,,,,,29.6371169,35.5123634
,,,camp_site,,,,,,,29.6389472,35.5124366
,,,camp_site,,,,,,,29.482223,35.382689
,,,camp_site,,,,,,,29.4818555,35.4089197
,,,camp_site,,,,,,,29.4884175,35.4080038
,,,camp_site,,,,,,,29.4382694,35.4460919
Sunset Camp,,,camp_site,,,,,,,29.4910853,35.3925568
Homestay Orjan 2,,,guest_house,,,,,,,32.3994172,35.7392425
Karak Rest House,,,hotel,,,,,,,31.1820649,35.701738
Beit Philodemus Bed & Breakfast,,,guest_house,,,,,,,32.6510205,35.6925872
Homestay Orjan 3,,,guest_house,,,,,,,32.4022102,35.7352517
Homestay Orjan 1,,,guest_house,,,,,,,32.3973203,35.7379064
Homestay Orjan,,,guest_house,,,,,,,32.3970686,35.7319339
B&B Gadara Rent Room,,,guest_house,,,,,,,32.6536463,35.6851845
Jordan Eco Park,,,hostel,,,,,,,32.5259365,35.618245
Eisa Dweekat Guest House,,,guest_house,,,,,,,32.4043304,35.7479172
منزل موسى يوسف مقداد,,,guest_house,,,,5,,عجلون,32.3960257,35.7348027
"Homestay, Eisa Zghoul",,,guest_house,,,,,,,32.2467502,35.7593918
بيت الرحال,Bayt Alrahaal,,guest_house,,,,,,,31.958231,35.9240543
al amer palace hotel,,,hotel,,,,,,,31.9928212,35.8795924
